address,lat,lon
"Sector 62,Gurgaon, India",28.407697,77.0823781
"Gomtinagar Extension,Lucknow, India",,
"Sector 86,Gurgaon, India",28.3981205,76.9411257
"Sector 112,Gurgaon, India",28.5203402,77.0188612
"Sector-99,Mohali, India",30.6574063,76.6951274
"Ajmer Road,Jaipur, India",26.9145574,75.7939878
"Sector 108,Mohali, India",30.6498933,76.6787338
"Sector-106,Mohali, India",30.6665244,76.6762447
"Sector 65,Gurgaon, India",28.4030162,77.0695893
"Jaipur Ajmer Express Highway,Jaipur, India",,
"Bhankrota,Jaipur, India",26.5743653,75.7161641
"Sector 114,Gurgaon, India",28.5327129,77.0122454
"Sector-104,Mohali, India",30.6506133,76.6865443
"Sultanpur Road,Lucknow, India",26.7738648,81.0768652
"Mahapura Colony,Jaipur, India",,
"Golf Course Extension Road,Gurgaon, India",28.4090032,77.0658497
"Shadipur,Port Blair, India",,
"Sector 89,Gurgaon, India",28.4184455,76.9457567
"Gachibowli,Hyderabad, India",17.4436222,78.3519638
"Kalarahanga,Bhubaneswar, India",,
"NH 8,Jaipur, India",26.9154576,75.8189817
"Sector 102,Gurgaon, India",28.4754872,76.9711747
"Sector 83,Gurgaon, India",28.3981087,76.9732873
"Sector 77,Gurgaon, India",28.3832337,76.982557
"Sector 66,Gurgaon, India",28.3974292,77.0538823
"Mehrauli Gurgaon Road,Gurgaon, India",28.4822608,77.0948909
"Golf Course Road,Gurgaon, India",28.4677319,77.0942263
"Sector 109,Mohali, India",30.6574063,76.6723823
"Sector 105 Emaar MGF,Mohali, India",,
"Commonwealth Games Village,New Delhi, India",,
"Dwarka Expressway,Gurgaon, India",28.4228725,76.9624963
"Sector 61,Gurgaon, India",28.4110188,77.0963685
"Sector 25,Gurgaon, India",28.4860888,77.084224
"Sector 22,Gurgaon, India",28.506318,77.0655182
"Sohna Road,Gurgaon, India",28.4572009,77.0280333
"Sector 26,Gurgaon, India",28.4779375,77.1032425
"Airport Road,Indore, India",22.7205804,75.8399089
"Tondiarpet,Chennai, India",13.1275202,80.2819242
"Sector 76,Gurgaon, India",28.3910112,76.9900243
"Long Island,Andaman & Nicobar, India",12.3968182,92.9342976
"Buniyadabad,Port Blair, India",,
"Camorta Island test,Andaman & Nicobar, India",,
"Aberdeen Village,Port Blair, India",,
"Tellapur,Hyderabad, India",17.4533558,78.2905362
"Nallagandla,Hyderabad, India",17.4774828,78.3060359
"Osman Nagar,Hyderabad, India",17.4418133,78.2782231
"Manikonda,Hyderabad, India",17.3999951,78.3861689
"Isnapur,Hyderabad, India",,
"Kompally,Hyderabad, India",17.5354868,78.5096979
"Shamshabad,Hyderabad, India",17.2627038,78.388111
"Gundlapochampally,Hyderabad, India",,
"Gopanapalli,Hyderabad, India",,
"Puppalaguda,Hyderabad, India",17.3999951,78.3861689
"Shaikpet,Hyderabad, India",17.4057955,78.4006536
"Chanda Nagar,Hyderabad, India",17.4534764,78.3943669
"Dundigal,Hyderabad, India",17.5062095,78.5051076
"Yeswanthpur,Bangalore, India",13.0221838,77.5530824
"Kondapur,Hyderabad, India",17.4587912,78.3730556
"Mettuguda,Hyderabad, India",17.4355036,78.5195573
"Jubilee Hills,Hyderabad, India",17.4308362,78.4102882
"Banjara Hills,Hyderabad, India",17.4177464,78.4399014
"Bahadurpally,Hyderabad, India",,
"Madhapur,Hyderabad, India",17.4408924,78.3916304
"Hafeezpet,Hyderabad, India",17.4834409,78.3611316
"Mokila,Hyderabad, India",,
"Tadepalli,Guntur, India",16.4799409,80.6170256
"Miyapur,Hyderabad, India",17.4981608,78.3567628
"Thanisandra Main Road,Bangalore, India",13.0402612,77.6243727
"Bachupally,Hyderabad, India",17.536648,78.3644736
"Shilaj,Ahmedabad, India",23.0544372,72.4720756
"Jodhpur Park,Kolkata, India",22.5056055,88.363674
"Vastral,Ahmedabad, India",22.9948656,72.6624431
"Ravet,Pune, India",18.643269,73.7450557
"Tragad,Ahmedabad, India",23.1283467,72.558657
"Gandhinagar Road,Ahmedabad, India",23.0229473,72.5064761
"Nikol,Ahmedabad, India",23.0589329,72.6718737
"Paschim Putiary,Kolkata, India",22.4803617,88.3377899
"Andheri East,Mumbai, India",19.1158835,72.854202
"Lalbaug,Vadodara, India",22.2825479,73.1992909
"Ballygunge Place,Kolkata, India",22.5276506,88.3673772
"Bondel Road,Kolkata, India",22.5291122,88.3695843
"Tiljala,Kolkata, India",22.5360688,88.3720085
"Ambegaon,Pune, India",19.0316936,73.9500301
"Sanand,Ahmedabad, India",23.0238876,72.3851475
"Ballygunge,Kolkata, India",22.5280337,88.3659084
"Jatin Das Road,Kolkata, India",22.5171569,88.35661
"Lake Gardens,Kolkata, India",22.5080547,88.3533289
"Rash Behari Avenue,Kolkata, India",22.5170535,88.3473884
"Anil Maitra Road,Kolkata, India",22.5258628,88.3698056
"Raja Basanta Roy Road,Kolkata, India",22.5137651,88.3510421
"Mullick Bazar,Kolkata, India",22.5799977,88.3543311
"Kalighat,Kolkata, India",22.5153313,88.3477052
"Hazra,Kolkata, India",22.5227232,88.3499241
"Andheri West,Mumbai, India",19.1172495,72.833968
"Kukatpally,Hyderabad, India",17.4930841,78.4054408
"Jaitala,Nagpur, India",21.1198761,79.0384201
"Sector 13 Rohini,New Delhi, India",,
"Kharghar,Navi Mumbai, India",19.025773,73.0591845
"Thergaon,Pune, India",18.609275,73.7729374
"Naya Raipur,Raipur, India",21.1610268,81.7864412
"Dombivli West,Thane, India",19.2221822,73.0809274
"Loudon Street,Kolkata, India",22.54498,88.3566553
"Boyapalem,Guntur, India",,
"Nidumukkala,Guntur, India",16.4427045,80.4099018
"Kunchanapalli,Guntur, India",16.4620153,80.6174397
"Nanakram Guda,Hyderabad, India",,
"Kothaguda,Hyderabad, India",17.458705,78.3638803
"Narsingi,Hyderabad, India",17.3996471,78.351242
"Gandipet,Hyderabad, India",17.3650805,78.3957009
"Hyder Nagar,Hyderabad, India",17.5014133,78.3842003
"Bowrampet,Hyderabad, India",17.5457451,78.3970359
"Benz Circle,Vijayawada, India",16.4984418,80.6526978
"Ayyappa Nagar,Vijayawada, India",16.4854959,80.6741135
"Kantheru,Guntur, India",16.3930665,80.5037355
"Kalaparru,Vijayawada, India",,
"Nizampet,Hyderabad, India",17.5032764,78.3882804
"Tukkuguda,Hyderabad, India",17.3836154,78.4036544
"Gudavalli,Vijayawada, India",16.5094182,80.7498266
"Kaza,Guntur, India",16.3890935,80.5405569
"Amaravathi,Guntur, India",16.4804399,80.5443811
"Bannerghatta Road,Bangalore, India",12.9490578,77.6028779
"Gorantla,Guntur, India",16.3430975,80.4410948
"Kundalahalli,Bangalore, India",12.977594,77.7155586
"HAL Stage 2,Bangalore, India",12.9715338,77.6497819
"Mahatma Gandhi Road,Bangalore, India",12.9755264,77.6067902
"Sainikpuri,Hyderabad, India",17.4892154,78.5424889
"Taloja,Navi Mumbai, India",19.0837812,73.0896844
"Pattabhipuram,Guntur, India",16.3113655,80.4139149
"Alkapuri,Hyderabad, India",17.3662342,78.5549781
"Madinaguda,Hyderabad, India",17.4917948,78.342306
"Sagar Nagar,Visakhapatnam, India",17.7671495,83.3580536
"Undri,Pune, India",18.4516318,73.8927348
"Dronagiri,Navi Mumbai, India",,
"Balapur,Hyderabad, India",17.3090714,78.502772
"Shirur,Pune, India",18.7610989,74.209529
"Nadargul,Hyderabad, India",17.3055481,78.5614916
"Syamalla Nagar,Guntur, India",,
"Pragathi Nagar,Hyderabad, India",17.5200154,78.3968876
"Peda Palakaluru,Guntur, India",16.3323895,80.3797957
"Jijai Nagar,Pune, India",18.4544079,73.824805
"JKC College Road,Guntur, India",,
"Chuttu Gunta,Guntur, India",,
"Tadikonda,Guntur, India",16.4183389,80.4546278
"Electronic City,Bangalore, India",12.8487599,77.648253
"Chikhali,Pune, India",18.6642449,73.8266835
"Begur Road,Bangalore, India",12.8745738,77.6254592
"Ameenpur,Hyderabad, India",17.5236905,78.3317297
"Thambu Chetty Palya,Bangalore, India",,
"KR Puram,Bangalore, India",13.007516,77.695935
"Habsiguda,Hyderabad, India",17.4154761,78.5426918
"C V Raman Nagar,Bangalore, India",12.9856478,77.6649767
"Uppal,Hyderabad, India",17.4025091,78.5612562
"Indira Nagar,Bangalore, India",12.9732913,77.6404672
"Tenali,Guntur, India",16.2377735,80.6464219
"NH-5,Guntur, India",16.2915189,80.4541588
"Atchutapuram,Visakhapatnam, India",17.5603184,82.9774949
"Mangalagiri,Vijayawada, India",16.4510075,80.543647
"Kanchikacherla,Vijayawada, India",,
"Bhavanipuram,Vijayawada, India",16.5261449,80.5930924
"Chilakaluripet,Guntur, India",16.2906071,80.4247742
"Mangalagiri,Guntur, India",16.4318209,80.5688069
"Ibrahimpatnam,Vijayawada, India",16.5830507,80.5486512
"Payakapuram,Vijayawada, India",16.5489197,80.6496014
"Vidhya Nagar,Guntur, India",15.9155248,80.4825272
"Shankarpalle Rangareddy,Hyderabad, India",,
"Srinagar Colony,Guntur, India",16.3099336,80.4402919
"APHB Colony,Guntur, India",16.298827,80.4061494
"Mamidala Padu,Kurnool, India",,
"Bibinagar,Hyderabad, India",,
"Ankushapur,Hyderabad, India",,
"Adibatla,Hyderabad, India",,
"Atmakur,Kurnool, India",,
"Municipal Quarters,Machilipatnam, India",,
"Tada,Nellore, India",,
"Deevancheru,Rajahmundry, India",,
"Anandapuram,Visakhapatnam, India",17.9038926,83.3704973
"Ayinada,Visakhapatnam, India",18.045436,83.3974039
"Bhogapuram,Visakhapatnam, India",,
"Chelluru,Vizianagaram, India",18.0571417,83.3971313
"Kothavalasa,Visakhapatnam, India",17.8992664,83.2568241
"Jami,Vizianagaram, India",18.0517982,83.2629541
"Madhurawada,Visakhapatnam, India",17.8102465,83.3540167
"Shankarpalli Road,Hyderabad, India",,
"Diwancheruvu,Rajahmundry, India",17.0456404,81.8196171
"Jonnada,Vizianagaram, India",18.0265966,83.4061689
"Peddapuram,East Godavari, India",17.0988507,81.5715054
"Sangareddy,Hyderabad, India",17.5277951,78.267446
"Rajapulova,Visakhapatnam, India",,
"Nagole,Hyderabad, India",17.3775306,78.5601231
"Bommuru,Rajahmundry, India",16.9756177,81.788431
"Alcot Gardens,Rajahmundry, India",,
"Rajanagaram,Rajahmundry, India",17.027867,81.8168338
"Kilpauk,Chennai, India",13.0832149,80.2379864
"Srirampuram Road,Rajahmundry, India",,
"Gannavaram,Vijayawada, India",16.5133305,80.7076296
"Tiruchanoor,Tirupati, India",,
"Kelambakkam,Chennai, India",12.8012825,80.1991871
"Kalavakkam,Chennai, India",12.746255,80.2016839
"OMR,Chennai, India",12.8886985,80.2272652
"Sriperumbudur,Chennai, India",13.0347051,80.156023
"East Coast Road,Chennai, India",12.9774585,80.2591826
"Mahabalipuram,Chennai, India",12.9122358,80.2290329
"Old Madras Road,Bangalore, India",13.0083877,77.6940973
"Thiruvanmiyur,Chennai, India",12.9858948,80.2644215
"Cheyur,Kancheepuram, India",,
"Kottivakkam,Chennai, India",12.9705053,80.2615033
"Perungudi,Chennai, India",12.9710239,80.2418051
"Kolanupaka,Hyderabad, India",,
"Anjimedu,Tirupati, India",,
"Renigunta,Tirupati, India",13.6384508,79.5105191
"LIC Colony,Vijayawada, India",16.5088095,80.6538021
"Mangalam Road,Tirupati, India",13.6563986,79.4685982
"Mangalam,Tirupati, India",13.3986645,79.5646421
"Thondavada,Tirupati, India",,
"Padmavathi Nagar,Tirupati, India",13.6206032,79.405172
"Karakambadi Road,Tirupati, India",13.6586253,79.4799
"Cherlopalli,Tirupati, India",13.6117907,79.3639369
"Surappakasam,Tirupati, India",13.5831527,79.503938
"Akkarampalle,Tirupati, India",13.6434265,79.4356125
"Rangampet,Tirupati, India",13.6238842,79.2779619
"Avilala,Tirupati, India",13.6122993,79.4184205
"SV Auto Nagar,Tirupati, India",,
"Akkivaram,Vizianagaram, India",18.017289,83.4661214
"Thatituru,Visakhapatnam, India",,
"Dwarapudi,Vizianagaram, India",18.1402595,83.3710232
"Etcherla,Srikakulam, India",18.2800048,83.8200482
"Bhogapuram,Vizianagaram, India",18.0321195,83.4978188
"Parawada,Visakhapatnam, India",17.629732,83.089794
"Modavalasa,Vizianagaram, India",,
"Sadashivpet,Hyderabad, India",,
"Kondakal,Hyderabad, India",,
"Kesarapalli,Vijayawada, India",,
"Srisailam Highway,Hyderabad, India",17.3232946,78.480139
"Padmanabham,Visakhapatnam, India",17.9894415,83.3325255
"Thagarapuvalasa,Vizianagaram, India",,
"Visakhapatnam,Visakhapatnam, India",17.6935526,83.2921297
"Patancheru,Hyderabad, India",17.5286092,78.2674254
"Simhachalam,Visakhapatnam, India",17.7453138,83.2207916
"Medchal,Hyderabad, India",17.3630295,78.5768953
"Majjivalasa,Visakhapatnam, India",17.9492962,83.3927994
"Mopada,Visakhapatnam, India",,
"Sontyam,Visakhapatnam, India",17.8660372,83.2946041
"Kandi,Hyderabad, India",17.5168428,78.3504968
"Vizag,Visakhapatnam, India",17.6935526,83.2921297
"Nandigaon,Hyderabad, India",17.1185749,78.2519325
"Venkatapuram,Hyderabad, India",17.496189,78.5043108
"Lemoor,Hyderabad, India",,
"Pendurthi,Visakhapatnam, India",17.7992135,83.20117
"Balaji Nagar,Vizianagaram, India",18.1045868,83.3974793
"Ravada,Vizianagaram, India",17.9703654,83.4596109
"Madhavadhara,Visakhapatnam, India",17.747455,83.2592912
"Bhanur,Hyderabad, India",,
"Korada,Visakhapatnam, India",17.9976377,83.3802324
"Telaprolu,Vijayawada, India",,
"Vuyyuru,Vijayawada, India",16.3716365,80.841741
"Kankipadu,Vijayawada, India",16.4047197,80.7979453
"Namburu,Vijayawada, India",16.5154549,80.6357371
"Dwarapureddi Palem,Vizianagaram, India",,
"Tagarapuvalsa,Visakhapatnam, India",,
"Bheemunipatnam,Visakhapatnam, India",17.8913852,83.4508737
"Pandrangi,Visakhapatnam, India",17.9631019,83.3664451
"Potpally,Hyderabad, India",,
"Kapuluppada,Visakhapatnam, India",17.8536175,83.3855601
"Bheemili,Visakhapatnam, India",17.8898601,83.4382376
"Savaravilli,Visakhapatnam, India",17.9703589,83.39232
"Dakamarri,Visakhapatnam, India",17.9889945,83.4009707
"Pydibimavaram,Srikakulam, India",,
"K Seetharampuram,Vizianagaram, India",18.4809654,83.7169784
"Polipalle,Vizianagaram, India",17.9667254,83.4383252
"Maddi,Visakhapatnam, India",17.9808418,83.3241221
"Revidi,Visakhapatnam, India",17.9641784,83.3728604
"S.Kota,Visakhapatnam, India",,
"Yendada,Visakhapatnam, India",17.7831798,83.3575511
"NH -5,Visakhapatnam, India",17.6935526,83.2921297
"Pothinamallayya Palem,Visakhapatnam, India",,
"Seethammadhara,Visakhapatnam, India",17.7450158,83.3061606
"Maddilapalem,Visakhapatnam, India",17.7352245,83.3209373
"Seetamma Peta,Visakhapatnam, India",17.734685,83.3097826
"Pusapatirega,Vizianagaram, India",18.0914739,83.551775
"Lankalapalem,Visakhapatnam, India",,
"Raikal,Jagtial, India",18.9047907,78.8080213
"Konada village,Vizianagaram, India",18.0164999,83.5631501
"Kumaram,Vizianagaram, India",18.0459233,83.3216122
"Arinam Akkivalasa,Srikakulam, India",18.2693492,83.7786675
"Chinamushidiwada,Visakhapatnam, India",17.8127687,83.2255539
"Korukonda,Vizianagaram, India",18.0641785,83.3349717
"Srikakulam,Srikakulam, India",18.2949307,83.8938844
"Shadnagar,Hyderabad, India",17.0943572,78.2091059
"Gidijala,Visakhapatnam, India",17.8935482,83.2929309
"Ramatheertham,Visakhapatnam, India",,
"Sarika,Vizianagaram, India",18.079367,83.3619573
"Jetpur,Rajkot, India",21.7543725,70.6189391
"Denkada,Vizianagaram, India",18.076142,83.4750949
"Karakavalasa,Vizianagaram, India",18.037804,83.0984058
"Gunkalam,Vizianagaram, India",18.1542023,83.350515
"Gurla,Vizianagaram, India",18.211804,83.4658385
"Nellimerla,Visakhapatnam, India",,
"BC Colony,Vizianagaram, India",18.0947131,83.3871052
"Pusapatirega,Visakhapatnam, India",,
"Ulwe,Navi Mumbai, India",18.9768614,73.0201311
"Whitefield,Bangalore, India",12.9963995,77.7614229
"Beltola,Guwahati, India",26.1229512,91.7992441
"Senchowa,Nagaon, India",26.3245485,92.6566756
"Dhirenpara,Guwahati, India",26.1502556,91.7291425
"Lankeshwar,Guwahati, India",26.1472457,91.646027
"Sodepur,Kolkata, India",22.6999347,88.3799386
"Dharapur,Guwahati, India",26.1628292,91.6456195
"Mugalivakkam,Chennai, India",13.0205798,80.1685163
"Perumbakkam,Chennai, India",12.9050095,80.1968629
"Madambakkam,Chennai, India",,
"Kandivali West,Mumbai, India",19.2139829,72.83733
"Jalukbari,Guwahati, India",26.1554983,91.671224
"Amingaon,Guwahati, India",26.1861581,91.6699507
"Kahilipara,Guwahati, India",26.1299619,91.7862307
"Dolaigaon,Bongaigaon, India",,
"Odalbakra,Guwahati, India",,
"Ulubari,Guwahati, India",26.175003,91.7576927
"Noonmati,Guwahati, India",26.1979372,91.7998576
"Bagharbari,Guwahati, India",26.139317,91.8288171
"Tarun Nagar,Guwahati, India",,
"Panjabari,Guwahati, India",,
"GS Road,Guwahati, India",,
"Hengrabari,Guwahati, India",26.1472525,91.8136272
"Rajgarh Road,Guwahati, India",26.1815655,91.7744252
"Maligaon,Guwahati, India",26.1600453,91.6958086
"Panjabari Bus Stand,Guwahati, India",,
"Kharghuli Hills,Guwahati, India",,
"Geetanagar,Guwahati, India",,
"Ananth Nagar,Bangalore, India",,
"Avadi,Chennai, India",13.0381702,80.1347679
"Sompura,Bangalore, India",12.8778283,77.4972385
"Pragathi Nagar,Bangalore, India",12.957534,77.7009125
"Anakaputhur,Chennai, India",12.9722109,80.1393765
"Ganeshguri,Guwahati, India",26.1551026,91.78227
"Betkuchi,Guwahati, India",,
"VIP Road,Guwahati, India",26.1804312,91.7508726
"Birubari,Guwahati, India",26.1685973,91.7484436
"Narengi Tinali,Guwahati, India",,
"Six Mile,Guwahati, India",26.1161377,91.7973256
"Zoo Road,Guwahati, India",26.1729318,91.7835573
"Survey,Guwahati, India",25.5748618,91.8826797
"Silpukhuri,Guwahati, India",26.1843424,91.7630711
"Jayanagar,Guwahati, India",26.1277782,91.805705
"Lokhra,Guwahati, India",26.1092885,91.7218968
"Hatigaon,Guwahati, India",26.1764006,91.7569564
"Bhetapara,Guwahati, India",26.1161783,91.7972485
"Khanapara,Guwahati, India",26.1161377,91.7973256
"Ambikagirinagar,Guwahati, India",,
"Gandhi Basti,Guwahati, India",26.1815474,91.7619396
"Japorigog,Guwahati, India",26.1551026,91.78227
"Lal Ganesh,Guwahati, India",,
"Dispur,Guwahati, India",26.1598156,91.7731426
"Kaliabor,Nagaon, India",26.5493378,92.9856301
"Panigaon Chariyali,Nagaon, India",,
"Vartak,Tezpur, India",,
"Mahabhairab,Tezpur, India",26.6342195,92.796307
"Ratnapur,Nagaon, India",,
"Fauzdaripatty,Nagaon, India",,
"Downtown,Guwahati, India",,
"Azara,Guwahati, India",26.1385795,91.6350313
"Bharalumukh,Guwahati, India",26.1716385,91.7292129
"Borsojai,Guwahati, India",,
"Bamunimaidam,Guwahati, India",26.1852211,91.7886629
"Nalapara,Guwahati, India",,
"Ahom Gaon,Guwahati, India",,
"Jyoti Nagar,Guwahati, India",26.172945,91.7615399
"Rehabari,Guwahati, India",26.1702255,91.751208
"Rupnagar,Guwahati, India",,
"Uzan Bazar,Guwahati, India",26.1919547,91.7553245
"Chandmari,Guwahati, India",26.1841165,91.7740906
"Assam Trunk Road,Sibsagar, India",27.0216304,94.6672942
"Club Road,Jorhat, India",26.7370138,94.2185279
"Bokakhat,Golaghat, India",26.6935737,93.5453657
"Uriagaon,Nagaon, India",26.3442368,92.7446584
"Chengeligaon,Jorhat, India",,
"Paruwa Chariali,Tezpur, India",26.6531802,92.7989736
"Jatani,Bhubaneswar, India",20.2227868,85.8110702
"9th Mile,Guwahati, India",26.1805978,91.753943
"Atilagaon,Jorhat, India",,
"Tisgaon,Aurangabad, India",19.8749657,75.256294
"Garkheda,Aurangabad, India",,
"Padegaon,Aurangabad, India",,
"Shendra MIDC,Aurangabad, India",19.8718438,75.4708665
"Adyar,Chennai, India",13.00645,80.2577791
"Cidco,Aurangabad, India",19.877755,75.3630638
"Ulkanagari,Aurangabad, India",,
"Chikhalnthana,Aurangabad, India",,
"Pannalal Nagar,Aurangabad, India",,
"Jalna Road,Aurangabad, India",19.8743511,75.3650229
"M I D C Waluj,Aurangabad, India",,
"Satara Pariser,Aurangabad, India",,
"Old Airport Road,Aurangabad, India",,
"Gangapur,Aurangabad, India",19.697402,75.008919
"Samarth Nagar,Aurangabad, India",19.8772446,75.3236915
"Kanakapura Road,Bangalore, India",12.8774226,77.5449653
"Beed Bypass,Aurangabad, India",19.8427811,75.4099407
"Senneer Kuppam,Chennai, India",,
"Poonamallee,Chennai, India",13.0241788,80.1782496
"Deolai,Aurangabad, India",,
"Satara Parisar,Aurangabad, India",19.8515226,75.311624
"Nakshatrawadi,Aurangabad, India",,
"Warud,Aurangabad, India",,
"Waluj,Aurangabad, India",19.7966101,75.2248813
"Khalifabagh Chowk,Bhagalpur, India",,
"Katrap,Badlapur, India",19.1644728,73.2283273
"Harni,Vadodara, India",22.3357564,73.2175201
"Lohegaon,Pune, India",18.5803749,73.9182265
"Sinhgad Road,Pune, India",18.4538138,73.8388505
"Vasai West,Mumbai, India",,
"Mirjanhat,Bhagalpur, India",25.2343822,86.9808715
"Wagholi,Pune, India",18.5806299,73.9833099
"Mota Mava,Rajkot, India",,
"Talegaon Dabhade,Pune, India",18.7337107,73.6728593
"Chakan,Pune, India",18.7623111,73.8625448
"Shri Krishna Nagar,Nagpur, India",21.1314474,79.1143818
"Dombivli,Thane, India",19.2148599,73.0910271
"Koregaon Park,Pune, India",18.5366225,73.8932738
"Wakad,Pune, India",18.6022495,73.7644454
"Digha,Patna, India",25.6442176,85.0907338
"Habibpur,Bhagalpur, India",25.2227225,86.9808474
"Naripa,Bhagalpur, India",,
"Nawabbag Colony,Bhagalpur, India",,
"Mithapur,Patna, India",25.599332,85.1338428
"Phulwari Sharif,Patna, India",25.5866072,85.0802796
"Tilkamanjhi,Bhagalpur, India",,
"Anisabad,Patna, India",25.5858278,85.0964126
"Sabour,Bhagalpur, India",25.2281735,87.0636166
"Laheari Tola,Bhagalpur, India",,
"Khanjarpur,Bhagalpur, India",,
"Bailey Road,Patna, India",25.610627,85.1262786
"Adampur,Bhagalpur, India",,
"Newalal Chowk,Purnia, India",,
"Bilasi Town,Deoghar, India",,
"Nilkanth Nagar,Bhagalpur, India",,
"Bodhgaya,Gaya, India",24.677623,84.9727292
"Chandauti,Gaya, India",24.7501319,84.9839828
"Jaganpura,Patna, India",25.5839202,85.1520139
"North Shastri Nagar,Patna, India",25.617541,85.0999473
"Patliputra Colony,Patna, India",25.6291729,85.1095929
"Kadamkuan,Patna, India",,
"Gaya Dobhi Road,Gaya, India",24.7411014,84.9645395
"Paigamber Pur Kolhua,Muzaffarpur, India",,
"Ahiyapur,Muzaffarpur, India",,
"Bela Road,Muzaffarpur, India",25.9099726,85.5348442
"Boring Road,Patna, India",25.616517,85.1137693
"Brahmpura,Muzaffarpur, India",,
"Surat City,Surat, India",21.2094892,72.8317058
"Mavdi,Rajkot, India",22.2608207,70.7816299
"Saguna More,Patna, India",25.6233883,85.0416756
"Karjat,Thane, India",19.1529637,73.2458478
"Nigdi,Pune, India",18.6598134,73.7772821
"Roadpali,Navi Mumbai, India",19.0392786,73.0992311
"Kalyan East,Thane, India",19.2278526,73.1322955
"Panvel,Navi Mumbai, India",19.0692422,72.9866726
"Pushpak Nagar,Navi Mumbai, India",,
"Arandia,Indore, India",,
"Ghansoli,Navi Mumbai, India",19.1163797,73.0069928
"Dombivli East,Thane, India",19.2111814,73.091129
"Kamothe,Navi Mumbai, India",19.0164338,73.0806552
"Kondhwa,Pune, India",18.4779905,73.8940627
"Shivane,Pune, India",18.4670411,73.7930648
"Mira Road,Mumbai, India",19.1878962,72.8365955
"Badlapur,Thane, India",19.1666237,73.2389064
"Nere,Pune, India",18.6337128,73.6956843
"Charkop,Mumbai, India",19.2141193,72.8258652
"Kamshet,Pune, India",18.7669374,73.5524324
"Kalol,Ahmedabad, India",,
"New Panvel,Navi Mumbai, India",18.9982037,73.1236641
"Sector 73,Noida, India",28.4716237,77.5312204
"Dhayari,Pune, India",18.4373984,73.8190432
"Sanpada,Navi Mumbai, India",19.0659774,73.0095329
"Badlapur East,Thane, India",19.1532664,73.2412085
"Vashi,Navi Mumbai, India",19.0632481,72.9987966
"Garia,Kolkata, India",22.4726577,88.3977506
"Kopar Khairane,Navi Mumbai, India",19.1056227,72.9988648
"Old Mumbai Pune Highway,Pune, India",18.6175317,73.8132447
"Ambegaon BK,Pune, India",18.4582421,73.8287037
"Bihta,Patna, India",25.561037,84.8723411
"Barejadi,Ahmedabad, India",22.8959246,72.6782442
"Satara Road,Pune, India",18.4709277,73.856879
"Raja Bazar,Patna, India",25.6044188,85.0877116
"Pakri,Patna, India",25.5935073,85.1570975
"Raj Nagar Extension,Ghaziabad, India",28.6528305,77.3671095
"Danapur,Patna, India",25.6358901,85.0474045
"Law Garden,Ahmedabad, India",23.0263944,72.5610565
"Dapoli,Ratnagiri, India",17.7580463,73.1887078
"Danapur Khagaul Road,Patna, India",25.639787,85.0558888
"Biscuit Factory Road,Patna, India",25.6350046,85.0675711
"Chimanlal Girdharlal Road,Ahmedabad, India",23.019319,72.5575922
"Rajbhansi Nagar,Patna, India",,
"Baramati,Pune, India",18.2198538,74.4534054
"Khagaul Road,Patna, India",25.639787,85.0558888
"Punaichak,Patna, India",,
"Golambar,Patna, India",25.5854734,85.095562
"Charholi Budruk,Pune, India",18.6531399,73.9079046
"Kothwan,Patna, India",,
"Ashiana Digha Road,Patna, India",,
"Patna City,Patna, India",25.6093239,85.1235252
"Patna Gaya Road,Patna, India",25.5144491,85.1888329
"Parsa,Patna, India",25.5496823,85.1190424
"Ram Krishna Puram,Patna, India",,
"New A G Colony,Patna, India",,
"Haroon Nagar,Patna, India",,
"Naubatpur,Patna, India",25.4750722,84.9670861
"Chirora,Patna, India",,
"Kaliket Nagar,Patna, India",,
"Rupaspur,Patna, India",,
"AG Colony,Patna, India",25.6183221,85.0919223
"Bompas Town,Deoghar, India",,
"Mustafapur,Patna, India",,
"Ashopur,Patna, India",,
"Mohgaon,Nagpur, India",20.8036003,78.9474213
"Shivpuri,Patna, India",25.5827935,85.0978318
"Arya Samaj Mandir Road,Patna, India",25.6224404,85.0490195
"Kankarbagh,Patna, India",25.6018851,85.166661
"Booty More,Ranchi, India",23.3954225,85.3843646
"Rajeev Nagar,Patna, India",,
"Hanuman Nagar,Patna, India",25.5910105,85.1601143
"New Patliputra Colony,Patna, India",,
"Vasundhara,Ghaziabad, India",28.6619725,77.3732972
"Deepatoli,Ranchi, India",,
"Khajpura,Patna, India",25.6053022,85.0782578
"Lalji Tola,Patna, India",,
"Exhibition Road,Patna, India",25.6142646,85.1439958
"Morabadi,Ranchi, India",23.390876,85.3278238
"R M S Colony,Patna, India",,
"Kidwaipur Postal Colony,Patna, India",,
"New Dak Bunglow Road,Patna, India",,
"Kurji,Patna, India",25.6426637,85.1004656
"Vivek Vihar Colony,Patna, India",,
"RPS Nagar,Patna, India",,
"Parsa Bazar,Patna, India",25.5496823,85.1190424
"Noida Extension,Greater Noida, India",28.6063158,77.432198
"Sector 152,Noida, India",28.5705399,77.3228931
"Zeta,Greater Noida, India",,
"Sector 150,Noida, India",28.5705399,77.3228931
"Dera Bassi,Chandigarh, India",30.5848605,76.8452066
"Noida Extension,Noida, India",28.6063158,77.432198
"NH 24,Ghaziabad, India",28.6711527,77.4120356
"Sector 105,Gurgaon, India",28.4943133,77.0081378
"Sector 124,Noida, India",28.5483036,77.3278057
"NH 22,Dera Bassi, India",30.5213532,76.8105142
"Dera Basi,Zirakpur, India",,
"Sector 99A,Gurgaon, India",28.4554059,76.9510278
"Yamuna Expressway,Greater Noida, India",28.3759499,77.5347219
"Sector 168,Noida, India",28.5706333,77.3272147
"Chi 4,Greater Noida, India",28.4299528,77.5162681
"Sector 89A,Gurgaon, India",28.4396186,77.0905891
"Indirapuram,Ghaziabad, India",28.6423908,77.3684892
"Sector 109,Gurgaon, India",28.5109205,77.0065956
"Sector 104,Gurgaon, India",28.4795324,76.9937197
"Sector 104,Noida, India",28.6158648,77.3785392
"Sector 132,Noida, India",28.5117058,77.3767844
"ZIRAKPUR,Zirakpur, India",30.65847,76.8296536
"Sector 93A,Noida, India",28.5180493,77.3843077
"Sahastradhara Road,Dehradun, India",30.344058,78.0737997
"Sector 50,Noida, India",28.5711552,77.3674862
"Sector 121,Mohali, India",30.7364504,76.7019939
"Gerugambakkam,Chennai, India",13.0152345,80.1368538
"Vandalur,Chennai, India",12.9676942,80.2175717
"Ambala Highway,Chandigarh, India",,
"Zirakpur,Chandigarh, India",30.62546,76.8235499
"VIP Road,Chandigarh, India",30.6383824,76.8194609
"Gazipur,Zirakpur, India",30.6371901,76.8298784
"Dhakoli,Zirakpur, India",30.6617929,76.838045
"Ambala Highway,Zirakpur, India",,
"Airport Road,Zirakpur, India",,
"Dharampur,Kasauli, India",30.9003323,77.0236434
"Sector 115,Mohali, India",30.7103678,76.6533279
"Banur,Mohali, India",30.6726192,76.6715232
"Kharar,Chandigarh, India",30.7386307,76.6714383
"Kharar,Mohali, India",30.7386307,76.6714383
"Daun Majra,Mohali, India",,
"Aerocity,Mohali, India",30.6462439,76.7535538
"Sas Nagar,Mohali, India",30.6904366,76.7116208
"Sector 127,Mohali, India",30.6986523,76.7301679
"Rajpura,Patiala, India",30.4776857,76.5937658
"Sector 126,Mohali, India",30.6986523,76.7301679
"Kharar Road,Mohali, India",30.6726192,76.6715232
"Sector 118,Mohali, India",30.7331674,76.6834974
"Sector 75,Mohali, India",30.702468,76.6926481
"Turkayamjal,Hyderabad, India",,
"Najafgarh,New Delhi, India",28.6059739,77.0479506
"Ghorakhal Road,Nainital, India",29.3811669,79.5336933
"Peer Muchalla,Zirakpur, India",,
"Mallampet,Hyderabad, India",,
"New Town,Kolkata, India",22.5882834,88.4734476
"Sector 4,Greater Noida, India",28.4707522,77.5319152
"Shahberi,Greater Noida, India",,
"Saheb Nagar,Hyderabad, India",17.3225355,78.574667
"Sector 4,Noida, India",28.5836826,77.3229658
"VIP Road,Zirakpur, India",30.6396347,76.8214439
"Sector 91,Mohali, India",30.7035417,76.673026
"Mundi Kharar,Mohali, India",,
"Sector 117,Mohali, India",30.7232809,76.6772747
"Bhago Majra,Mohali, India",30.6759,76.6726184
"Sector 5,Chandigarh, India",30.745558,76.806783
"Sector 62,Mohali, India",30.6986523,76.7301679
"Kishanpura,Zirakpur, India",,
"Kurud,BHILAI, India",21.2309974,81.3475414
"Shanti Nagar,BHILAI, India",21.20914,81.295815
"Kumhari-1,Raipur, India",,
"Saddu,Raipur, India",,
"Vidhan Sabha Road,Raipur, India",21.2751229,81.6871698
"Labhandih,Raipur, India",,
"Purena,Raipur, India",21.198736,81.429479
"Kota,Raipur, India",21.2579497,81.5973318
"Adawal,Jagdalpur, India",19.067709,82.0594594
"Semariya-2,Raipur, India",21.3103168,81.7319728
"Kabir Nagar,Raipur, India",21.2680028,81.5904461
"Daldal Seoni,Raipur, India",21.2709604,81.6609975
"Kohka,BHILAI, India",21.2189395,81.3462236
"Kachna Road,Raipur, India",,
"Urkura,Raipur, India",21.2972936,81.650941
"Baguiati,Kolkata, India",22.609668,88.4276832
"Raipur Junction Railway Station,Raipur, India",21.2560953,81.6297323
"Umda Road,BHILAI, India",,
"Ratanpur Road,Bilaspur, India",22.1535833,82.1247189
"Narendrapur,Kolkata, India",22.4539009,88.4184898
"Sarankhada,Bilaspur, India",,
"Ameri,Bilaspur, India",,
"Parsada,Bilaspur, India",21.963624,82.2566986
"Parsulidih,Raipur, India",,
"Sarona,Raipur, India",21.2531985,81.5738954
"EKLINGPURA,Udaipur, India",,
"Abhanpur,Raipur, India",21.0546328,81.7484644
"Pacheda-1,Raipur, India",,
"Sejbahar,Raipur, India",,
"Kumhari,Raipur, India",,
"Avanti Nagar,Raipur, India",,
"Hirapur,Raipur, India",,
"Shankar Nagar,Raipur, India",21.2484764,81.6609145
"Hirapur Road,Raipur, India",,
"Bhatagaon,Raipur, India",21.2098785,81.6339027
"Dhamtari Road,Raipur, India",21.2023515,81.6449406
"Mowa,Raipur, India",21.2684799,81.6718031
"Katol Road,Nagpur, India",21.1848111,79.0305853
"Trimurti Nagar,Nagpur, India",21.1149228,79.0408514
"Ramalinga Nagar,Trichy, India",10.82215,78.6676132
"Kachna,Raipur, India",21.2741643,81.6983496
"New Rajendra Nagar,Raipur, India",21.2266384,81.6574817
"Old Dhamatari Road,Raipur, India",,
"New Naroda,Ahmedabad, India",23.0875987,72.6839578
"Daskroi,Ahmedabad, India",23.0963746,72.7104024
"Samarvarni,Silvassa, India",,
"Nani Daman,Daman, India",20.4458879,72.8330755
"Dunetha,Daman, India",,
"Borivali West,Mumbai, India",19.2298129,72.8471376
"Sector 11 Dwarka,New Delhi, India",28.5592726,77.0666248
"Chembur,Mumbai, India",19.054818,72.8979713
"DLF Phase 2,Gurgaon, India",28.483901,77.0846097
"Sushant Lok,Gurgaon, India",28.4706634,77.0798127
"Sector 18 Dwarka,New Delhi, India",28.5696878,77.0643221
"Sector 10 Dwarka,New Delhi, India",28.5592726,77.0666248
"Sector 22 Dwarka,New Delhi, India",28.5579591,77.0580701
"Sector 23 Dwarka,New Delhi, India",28.5592726,77.0666248
"Dwarka,New Delhi, India",28.5656109,77.0670366
"Sector 52,Gurgaon, India",28.4368166,77.0795276
"Palam Vihar,Gurgaon, India",28.4983353,77.0203007
"Behala,Kolkata, India",22.501572,88.3209435
"Maharani Bagh,New Delhi, India",28.5702865,77.2668244
"Sector 3 Dwarka,New Delhi, India",28.6096323,77.0371165
"Borivali East,Mumbai, India",19.2187187,72.8654856
"Malad West,Mumbai, India",19.1852851,72.8358611
"Sector 23,Gurgaon, India",28.510319,77.0530094
"Sector 49,Faridabad, India",28.3950066,77.2742897
"Sector 2,Faridabad, India",28.4031478,77.3105561
"Sector 1,Gurgaon, India",28.5175247,77.0425692
"Santacruz East,Mumbai, India",19.0781806,72.8677752
"Goregaon East,Mumbai, India",19.1692623,72.8552548
"Sector 27,Gurgaon, India",28.4646566,77.0839505
"Sector 4 Dwarka,New Delhi, India",28.5592726,77.0666248
"Mazgaon,Mumbai, India",18.9697337,72.8406201
"Mulund West,Mumbai, India",19.1719717,72.9511956
"Kurar Village,Mumbai, India",,
"Matunga West,Mumbai, India",19.0317259,72.8433917
"Kurla West,Mumbai, India",19.0686026,72.876583
"Juhu,Mumbai, India",19.1070215,72.8275275
"Civil Lines,Allahabad, India",25.4523026,81.8329887
"Dahisar East,Mumbai, India",19.2599822,72.8598732
"Bhayandar East,Mumbai, India",,
"Vile Parle West,Mumbai, India",19.103908,72.840301
"Pitampura,New Delhi, India",28.690109,77.1343765
"Sewri,Mumbai, India",18.9987796,72.8544218
"Sector 65,Faridabad, India",28.3112489,77.3391556
"Vikhroli East,Mumbai, India",19.1172592,72.9355194
"Bandra West,Mumbai, India",19.0583358,72.8302669
"Lajpat Nagar,New Delhi, India",28.5737083,77.258017
"Sus,Pune, India",18.5536672,73.752727
"Vile Parle East,Mumbai, India",19.1031465,72.8467877
"Pali Hill,Mumbai, India",19.0649126,72.8270326
"Sector 7,Gurgaon, India",28.4662572,77.0142654
"Sector 62,Faridabad, India",28.313465,77.329681
"Sector 45,Faridabad, India",28.4520755,77.3006612
"Karol Bagh,New Delhi, India",28.6539198,77.191078
"Matunga East,Mumbai, India",19.0261579,72.8520846
"Santacruz West,Mumbai, India",19.0844004,72.8372899
"Powai,Mumbai, India",19.1187195,72.9073476
"Parel,Mumbai, India",19.0084268,72.842505
"Bakhtawarpur,New Delhi, India",28.5478847,77.3159008
"Mulund East,Mumbai, India",19.1704719,72.9610447
"Sector 64,Faridabad, India",28.324039,77.3393416
"Malad East,Mumbai, India",19.1860219,72.8563181
"Kanchpada,Mumbai, India",,
"Sadashiv Peth,Pune, India",18.5107764,73.8502149
"Pimpri Chinchwad,Pune, India",18.6279288,73.8009829
"Sector 5 Dwarka,New Delhi, India",28.5592726,77.0666248
"Sector 19 Dwarka,New Delhi, India",28.5649787,77.0510412
"Sector 14 Rohini,New Delhi, India",28.7194201,77.1096302
"Sector 9 Dwarka,New Delhi, India",28.5592726,77.0666248
"East Of Kailash,New Delhi, India",28.5558548,77.2488354
"Sector 14,Gurgaon, India",28.473784,77.0471827
"Sector 7 Dwarka,New Delhi, India",28.5592726,77.0666248
"Sector 6 Dwarka,New Delhi, India",28.5592726,77.0666248
"Sector 2 Dwarka,New Delhi, India",28.5592726,77.0666248
"IP Extension,New Delhi, India",28.5607037,77.2036565
"Sector 13 Dwarka,New Delhi, India",28.5592726,77.0666248
"Sector 9 Rohini,New Delhi, India",28.7194201,77.1096302
"Sector 12 Dwarka,New Delhi, India",28.5974584,77.0423682
"Vasundhara Enclave,New Delhi, India",,
"Sector 21,Noida, India",28.5868228,77.3361622
"Kalkaji,New Delhi, India",28.5435234,77.247977
"Sector 62,Noida, India",28.6211447,77.3643493
"Sector 56,Gurgaon, India",28.4253232,77.0985157
"Sector 15,Gurgaon, India",28.3843199,76.9122326
"Sector 46,Faridabad, India",28.4409223,77.3006166
"Lokhandwala Township Kandivali East,Mumbai, India",,
"EM Bypass,Kolkata, India",22.4743536,88.3886906
"Oshiwara,Mumbai, India",19.1502437,72.8342294
"Alaknanda,New Delhi, India",28.5253193,77.2546707
"Shalimar bagh,New Delhi, India",28.7096432,77.1691744
"Chi 2,Greater Noida, India",28.4479087,77.5102541
"Geetanjali Enclave,New Delhi, India",,
"Deoli,New Delhi, India",,
"Sector 24 Dwarka,New Delhi, India",28.5592726,77.0666248
"Narela,New Delhi, India",,
"Vasant Kunj,New Delhi, India",28.5292495,77.1541335
"Tiggipur,New Delhi, India",,
"Karkardooma,New Delhi, India",28.6536001,77.2957877
"Mukherjee Nagar,New Delhi, India",,
"Sector 27 Dwarka,New Delhi, India",28.5592726,77.0666248
"Jasola,New Delhi, India",28.5381584,77.2885562
"Sector B Vasant Kunj,New Delhi, India",28.5265395,77.1566818
"Sarita Vihar,New Delhi, India",28.5387073,77.2868961
"Saket,New Delhi, India",28.5234897,77.209631
"New Rajendra Nagar,New Delhi, India",28.6357403,77.1810326
"Patparganj,New Delhi, India",,
"Sri Aurobindo Marg,New Delhi, India",,
"Paschim Vihar,New Delhi, India",,
"Sector C Vasant Kunj,New Delhi, India",,
"Rohini,New Delhi, India",28.7194361,77.0672351
"Sector 14 Dwarka,New Delhi, India",28.5592726,77.0666248
"Vasant Vihar,New Delhi, India",28.557827,77.1611168
"Sector D Vasant Kunj,New Delhi, India",28.5343676,77.142188
"Sector 17 Rohini,New Delhi, India",,
"Jahangirpuri,New Delhi, India",28.6964486,77.1842968
"Siraspur,New Delhi, India",,
"Mayur Vihar Phase 2,New Delhi, India",,
"Loni Road,New Delhi, India",,
"Jasola Vihar,New Delhi, India",28.5381584,77.2885562
"New Ranjeet Nagar,New Delhi, India",,
"Hari Nagar,New Delhi, India",28.6307216,77.1242288
"Sector 16B Dwarka,New Delhi, India",28.5592726,77.0666248
"Sector 15 Rohini,New Delhi, India",,
"Dilshad Garden,New Delhi, India",28.6816931,77.3281381
"Indraprastha,New Delhi, India",28.6009714,77.2536432
"Sector 18B Dwarka,New Delhi, India",28.5592726,77.0666248
"Sector 4 Rohini,New Delhi, India",28.7060837,77.1028753
"Sector 1 Dwarka,New Delhi, India",28.5592726,77.0666248
"Gulmohar Park,New Delhi, India",,
"Sector 28 Rohini,New Delhi, India",,
"GTB Enclave,New Delhi, India",,
"Mayur Vihar 1,New Delhi, India",,
"Sector 26 Dwarka,New Delhi, India",28.5592726,77.0666248
"Sector 23 Rohini,New Delhi, India",28.7326849,77.0884608
"Sarvodaya Enclave,New Delhi, India",28.5871236,77.0881692
"Manglapuri,New Delhi, India",28.5016212,77.1663523
"Munirka,New Delhi, India",28.554886,77.1710841
"Dwarka Sector 19B,New Delhi, India",,
"Sector 11 Rohini,New Delhi, India",,
"Ashok Vihar Phase 3,New Delhi, India",28.6915549,77.1771146
"Sector 29 Rohini,New Delhi, India",28.7060837,77.1028753
"Sector 16 Rohini,New Delhi, India",28.7129004,77.1379334
"Gulabi Bagh,New Delhi, India",,
"Sheikh Sarai Phase 1,New Delhi, India",,
"Prasad Nagar,New Delhi, India",28.6358177,77.1600654
"Ashok Vihar Phase 2,New Delhi, India",,
"Bakkarwala,New Delhi, India",,
"Bindapur,New Delhi, India",28.6100413,77.0682826
"Chhattarpur,New Delhi, India",28.5033155,77.1787621
"Sector 8 Rohini,New Delhi, India",28.7194201,77.1096302
"Sector 93,Gurgaon, India",28.4156048,76.931638
"Sector 3,Panchkula, India",30.6887782,76.8706895
"Sector 54,Gurgaon, India",28.4421059,77.1112654
"DLF Phase 1,Gurgaon, India",28.4765171,77.090194
"Moti Nagar,New Delhi, India",28.5794125,77.1877951
"NH 48,Gurgaon, India",28.4646148,77.0299194
"Sector 67,Gurgaon, India",28.3864052,77.0598046
"IMT Manesar,Gurgaon, India",28.3671851,76.920669
"DLF Phase 3,Gurgaon, India",28.4919048,77.0937804
"Reis Magos,Goa, India",15.4966011,73.8095534
"DLF Phase 4,Gurgaon, India",28.4919048,77.0937804
"Shimla Hill Station,Shimla, India",,
"Manapakkam,Chennai, India",13.0147531,80.1744935
"Sector 143A,Noida, India",28.4990448,77.4293379
"Indira Nagar,Hyderabad, India",17.4847838,78.4903557
"Sector 92,Gurgaon, India",28.4089049,76.9155232
"AB Road,Indore, India",22.6897459,75.8636811
"Raibareli Road,Lucknow, India",,
"Sector 91,Gurgaon, India",28.4007588,76.9210802
"Sector 90,Gurgaon, India",28.4069974,76.9365562
"Sector 82A,Gurgaon, India",28.3858766,76.9639317
"Sector 74A,Gurgaon, India",28.4108506,76.9991194
"Sector 81,Gurgaon, India",28.3873647,76.9475835
"DLF Phase 5,Gurgaon, India",28.503445,77.0952048
"Mullapur Garibdas,New Chandigarh, India",,
"Manesar,Gurgaon, India",28.3247096,76.9263787
"Okhla Phase 1,New Delhi, India",28.5470861,77.3135343
"NH-3,Indore, India",22.7203616,75.8681996
"GK II,New Delhi, India",,
"Sector 43,Gurgaon, India",28.4548735,77.0858864
"Sector 73,Gurgaon, India",28.4088081,77.0161691
"Rajarhat,Kolkata, India",22.6286173,88.44061
"Sector 42,Gurgaon, India",28.4558973,77.1084759
"Akshayanagar,Bangalore, India",12.8750432,77.6164914
"Kakkanad,Kochi, India",10.0076837,76.36403
"Patia,Bhubaneswar, India",20.3604502,85.8247661
"Jigani,Bangalore, India",12.7764978,77.6326204
"Egmore,Chennai, India",13.0728321,80.2576906
"Vyttila,Kochi, India",9.9636706,76.3181282
"Shivaji Park,New Delhi, India",28.6386524,77.224141
"Sector 24,Gurgaon, India",28.4944811,77.1013038
"Sector 30,Gurgaon, India",28.4618719,77.05688
"Sector 28,Gurgaon, India",28.4741302,77.0825722
"Sector 5,Gurgaon, India",28.4803924,77.0190946
"Sector 82,Gurgaon, India",28.3931076,76.9588762
"Sector 18,Noida, India",28.5705399,77.3228931
"Vibhuti Khand,Lucknow, India",26.8647922,80.9962852
"Sarojini Nagar,New Delhi, India",28.575817,77.1980786
"Gomti Nagar,Lucknow, India",26.8611743,81.0039196
"Sector 18,Gurgaon, India",28.4913452,77.0710259
"BTM Layout,Bangalore, India",12.9140008,77.6102821
"Mehrauli,New Delhi, India",28.4915171,77.1433
"Sector 12,Greater Noida, India",28.4722157,77.5309542
"Worli,Mumbai, India",19.0117388,72.8178706
"Hinjewadi,Pune, India",18.5924168,73.7603495
"Devanahalli,Bangalore, India",13.2483502,77.7134377
"Kandivali East,Mumbai, India",19.2051958,72.8626165
"Mahalakshmi,Mumbai, India",18.9892129,72.8186798
"Hinjewadi Phase 1,Pune, India",18.5883579,73.7374132
"Bhandup West,Mumbai, India",19.1462636,72.9339461
"Sector 43,Noida, India",28.5575946,77.351679
"Sector 106,Gurgaon, India",28.5060806,76.9967796
"Joka,Kolkata, India",22.4440967,88.3017146
"Sector 33 Sohna,Gurgaon, India",28.3241636,77.0848644
"Sarjapur Road,Bangalore, India",12.9240811,77.6393253
"Sector 103,Gurgaon, India",28.493087,76.9866453
"Pimpri,Pune, India",18.6231854,73.8019932
"Kavesar,Thane, India",19.2623339,72.9722476
"Vikhroli,Mumbai, India",19.1114795,72.928021
"Sector 53,Gurgaon, India",28.4415191,77.096805
"Sumthana,Nagpur, India",,
"Kolshet Road,Thane, India",19.2296742,72.9846953
"Budigere Cross,Bangalore, India",13.0462134,77.7504125
"Sector 146,Noida, India",28.5705399,77.3228931
"Kokapet,Hyderabad, India",17.4042541,78.3305213
"Mamurdi,Pune, India",18.6852443,73.722612
"Doddaballapur,Bangalore, India",13.1060415,77.5821076
"Manjari Khurd,Pune, India",18.5258016,73.9920372
"Ujjain Indore Road,Indore, India",22.7630677,75.842117
"Okhla,New Delhi, India",28.6250585,77.2172811
"Sector 44,Noida, India",28.5531837,77.3381716
"Sector 49,Gurgaon, India",28.4128851,77.0498362
"Hoskote,Bangalore, India",13.0318443,77.7618779
"Mundhwa,Pune, India",18.5343218,73.9298264
"Wadala,Mumbai, India",19.0269192,72.8759337
"Hinjewadi Phase 3,Pune, India",18.5920682,73.7576392
"Barrackpore Trunk Road,Kolkata, India",22.6093683,88.3759097
"Mahalunge,Pune, India",19.0931323,73.7526518
"Besa,Nagpur, India",21.0847512,79.09447
"Bagaluru,Bangalore, India",13.1403482,77.671269
"Manglia,Indore, India",22.8174619,75.9249299
"Sector 88A,Gurgaon, India",28.4337898,76.9539433
"Matunga,Mumbai, India",19.0274356,72.8501467
"Kharadi,Pune, India",18.5512763,73.9416575
"Connaught Place,New Delhi, India",28.6314022,77.2193791
"Manjri,Pune, India",18.5058249,73.9623288
"Thanisandra,Bangalore, India",13.0522499,77.6316152
"Kalyan West,Thane, India",19.240353,73.1252789
"Sector 27,Greater Noida, India",28.4742779,77.5320125
"Jagatpur,Ahmedabad, India",23.0892733,72.550066
"Chandivali,Mumbai, India",19.1091482,72.8945793
"New International Airport Road,Bangalore, India",13.0728208,77.6524223
"Electronics City Phase 1,Bangalore, India",12.8401734,77.6595099
"Hoodi,Bangalore, India",12.9959233,77.7192796
"Pari Chowk,Greater Noida, India",28.4631285,77.5080985
"Indira Nagar,Nashik, India",19.9734698,73.7812185
"Navandhe,Raigad, India",,
"Sarjapur,Bangalore, India",12.9116225,77.6388622
"Yerawada,Pune, India",18.5586854,73.8954953
"Khalapur,Raigad, India",18.8321669,73.2852464
"Cumballa Hill,Mumbai, India",18.968623,72.8068368
"Bellahalli Main Road,Bangalore, India",13.1019474,77.63474
"Sector 79,Gurgaon, India",28.4396186,77.0905891
"Manor,Palghar, India",19.7227662,72.9096153
"Ganesh peth,Nagpur, India",20.9311834,77.7556827
"Kalyan,Thane, India",19.2396742,73.1366482
"Mulund,Mumbai, India",19.1721762,72.9562383
"Sector 27,Noida, India",28.5746768,77.3287281
"Hinganewadi,Pune, India",,
"Sector 85,Gurgaon, India",28.403652,76.9531428
"Padur,Chennai, India",12.8054706,80.2247264
"Keshav Nagar,Pune, India",18.5322658,73.9383844
"Bhayandarpada,Thane, India",,
"Hebbal,Bangalore, India",13.0382184,77.5919
"SG Highway,Ahmedabad, India",23.1124781,72.5356222
"Yelahanka,Bangalore, India",13.1006982,77.5963454
"Sector 83,Faridabad, India",28.3809129,77.3718227
"Chembarambakkam,Chennai, India",13.016769,80.1367942
"Ghodbunder Road,Thane, India",19.2335556,72.9759463
"Salt Lake City,Kolkata, India",22.590425,88.41692
"Sector 34,Sonipat, India",29.000174,77.0395075
"Alipore,Kolkata, India",22.5264928,88.3323692
"Sector 80,Gurgaon, India",28.3702173,76.9611159
"Sector 3,Gurgaon, India",28.4973905,77.020526
"Old Panvel,Navi Mumbai, India",,
"Chandkheda,Ahmedabad, India",23.1100643,72.5811205
"Tumkur Road,Bangalore, India",13.0301897,77.5379177
"Pokhran Road,Thane, India",19.216395,72.9726005
"Manpada Thane West,Thane, India",19.214594,73.0909211
"Phase I Industrial Area,Chandigarh, India",,
"Bandra,Mumbai, India",19.0549792,72.8402203
"Bund Garden Road,Pune, India",18.5410842,73.8841652
"Byculla,Mumbai, India",18.9766219,72.8327936
"Shivajinagar,Pune, India",18.5325915,73.8513115
"Airport road,Mangalore, India",12.9300261,74.8585909
"Cuffe Parade,Mumbai, India",18.9129204,72.8201377
"T Nagar,Chennai, India",13.0294483,80.2309064
"Sion,Mumbai, India",19.0465213,72.8632834
"Juinagar,Navi Mumbai, India",19.0559456,73.0182495
"Patel Nagar,New Delhi, India",28.6337877,77.1293046
"Shadipur,New Delhi, India",28.6488242,77.158541
"Sohna,Gurgaon, India",28.3241636,77.0848644
"Koramangala,Bangalore, India",12.9357366,77.624081
"Sector 84,Gurgaon, India",28.4082289,76.9630245
"Dundahera,Gurgaon, India",28.5131762,77.0780415
"Dharuhera,Dharuhera, India",28.205553,76.793427
"Sector 78,Gurgaon, India",28.3725283,76.9702955
"Sector 31,Gurgaon, India",28.4540044,77.0497179
"Vijayanagar,Bangalore, India",12.9709537,77.5373851
"Airoli,Navi Mumbai, India",19.1585147,72.9994019
"Sector 108,Gurgaon, India",28.5128994,76.9823615
"Patrakar Colony,Jaipur, India",,
"Sector 47,Gurgaon, India",28.4251572,77.0475128
"Sector 48,Gurgaon, India",28.4104903,77.0394627
"Grand Trunk Road,Panipat, India",29.3452385,76.9818449
"Sarvodaya Nagar,Mumbai, India",19.1635438,72.9463214
"Sector 33,Gurgaon, India",28.4384785,77.0251655
"Sidcul,Haridwar, India",29.9530546,78.0830905
"Vrindavan Yojana,Lucknow, India",,
"Jawahar Circle,Jaipur, India",26.8397772,75.8009153
"Sector 52,Noida, India",28.5885198,77.3689065
"Kaushambi,Ghaziabad, India",28.6452857,77.3243429
"Sector 77,Noida, India",28.4711991,77.5307605
"Sector 78,Noida, India",28.4712338,77.5308209
"Sector 51,Noida, India",28.5821534,77.371457
"Sector 106,Noida, India",28.4713294,77.5298892
"Chitrakut,Jaipur, India",,
"Bhiwandi,Thane, India",19.3025562,73.0588072
"NH-1,Sonipat, India",28.9953758,77.0233627
"Subhash Nagar,New Delhi, India",,
"Parshwanath king City,Rajpura, India",,
"Grand Trunk Road,Ghaziabad, India",28.6306999,77.4688286
"NH-8,Dharuhera, India",28.2055216,76.7953099
"Faridpur,Panipat, India",29.4353704,76.9528214
"Arthala,Ghaziabad, India",28.676999,77.3918919
"Eldeco Green Meadows,Greater Noida, India",,
"Pakwara,Moradabad, India",,
"Itawa,Dewas, India",22.9814231,76.0370902
"Ambernath East,Thane, India",,
"Sama Savli Road,Vadodara, India",22.443397,73.1905023
"Wai,Satara, India",17.9423742,73.9192535
"Civil Lines,New Delhi, India",28.6792447,77.1954975
"Swarn Nagari,Greater Noida, India",,
"Alpha 2,Greater Noida, India",28.4785615,77.5178236
"Fatehabad Road,Agra, India",27.1610983,78.0407827
"Faizabad Road,Lucknow, India",26.8863181,81.0510531
"Sector 8,Sonipat, India",28.9953758,77.0233627
"NH 1,Rajpura, India",23.2892414,74.9794733
"Mohan Nagar,Ghaziabad, India",28.6785372,77.3840026
"Sanganer,Jaipur, India",26.8146217,75.7731874
"Sector-20,Panchkula, India",30.6655635,76.8572556
"Sector 35,Karnal, India",29.6803266,76.9896254
"Omega 1,Greater Noida, India",,
"Tajganj,Agra, India",27.1687164,78.0389678
"Sangariya,Jodhpur, India",,
"Alpha 1,Greater Noida, India",28.4710345,77.5127373
"Dhanori,Pune, India",18.5906707,73.8913189
"Phi 2,Greater Noida, India",28.4432551,77.5221103
"Sector 61,Noida, India",28.596458,77.3675644
"New Moradabad,Moradabad, India",,
"Ashok Nagar,Sonipat, India",28.989868,77.0225231
"Raj Pura,Mohali, India",,
"PI 1 & 2,Greater Noida, India",28.4733159,77.542418
"Amruthnagar,Bangalore, India",13.0569904,77.5981092
"Sector 12,Faridabad, India",28.3855484,77.3232364
"Baner Road,Pune, India",18.564727,73.7747989
"Sector 20B,Faridabad, India",28.3882379,77.3108457
"Pandav Nagar,New Delhi, India",28.6500237,77.1536755
"Seelampur,New Delhi, India",,
"Netaji Subhash Place,New Delhi, India",,
"Sector 3 Rohini,New Delhi, India",28.7060837,77.1028753
"Banashankari Stage 2,Bangalore, India",12.9244594,77.5701543
"Vishwas Nagar,New Delhi, India",,
"Rabindra Nagar,New Delhi, India",28.5990034,77.2238326
"GK I,New Delhi, India",,
"Greater Kailash,New Delhi, India",28.5555167,77.2634965
"Chittaranjan Park,New Delhi, India",28.5415061,77.2432977
"Vikaspuri,New Delhi, India",28.6379545,77.0713693
"Kalu Sarai,New Delhi, India",28.536917,77.1881324
"Uttam Nagar,New Delhi, India",28.6088003,77.0673956
"Sector 22 Rohini,New Delhi, India",28.7194508,77.067249
"Sector 25 Rohini,New Delhi, India",,
"Kanjhawala,New Delhi, India",,
"Greater Kailash Enclave 2,New Delhi, India",,
"Gwal Pahari,New Delhi, India",,
"Gunjur,Bangalore, India",12.9209772,77.7361016
"Soukya Road,Bangalore, India",13.0774744,77.5587548
"Panathur,Bangalore, India",12.9351457,77.7047541
"Shela,Ahmedabad, India",23.0108213,72.4427119
"Prahlad Nagar,Ahmedabad, India",22.9999369,72.5050111
"Makarba,Ahmedabad, India",22.996342,72.5043085
"Kothanur,Bangalore, India",12.8701259,77.5820178
"Satellite,Ahmedabad, India",23.0230941,72.5364734
"Sanathal,Ahmedabad, India",22.9645191,72.4704112
"Hennur Main Road,Bangalore, India",13.0161182,77.6292879
"South Bopal,Ahmedabad, India",23.0235385,72.470527
"Jodhpur Village,Ahmedabad, India",,
"Kannuru,Bangalore, India",13.0967426,77.6535003
"Vastrapur,Ahmedabad, India",23.0400861,72.5290418
"Bodakdev,Ahmedabad, India",23.0445921,72.517344
"Sardar Patel Ring Road,Ahmedabad, India",22.9254331,72.5698393
"Bellandur,Bangalore, India",12.9371445,77.6720227
"Thaltej,Ahmedabad, India",23.0485393,72.511742
"Gomtipur,Ahmedabad, India",23.0136957,72.620581
"Ambawadi,Ahmedabad, India",23.0226117,72.5490834
"Maninagar,Ahmedabad, India",22.9986596,72.6114013
"Memnagar,Ahmedabad, India",23.0530844,72.5329308
"Navrangpura,Ahmedabad, India",23.0359998,72.5643429
"Ellisbridge,Ahmedabad, India",23.0230917,72.5719841
"Usmanpura,Ahmedabad, India",23.0494863,72.5672615
"Mirzapur,Ahmedabad, India",,
"Sola,Ahmedabad, India",23.069237,72.5111307
"Vasant Nagar,Ahmedabad, India",,
"Kalupur,Ahmedabad, India",23.0263312,72.601
"Bopal,Ahmedabad, India",23.0235385,72.470527
"Isanpur,Ahmedabad, India",22.9811295,72.6012948
"Shahibaug,Ahmedabad, India",23.0556364,72.5965538
"Khadia,Ahmedabad, India",23.02139,72.5892915
"University Area,Ahmedabad, India",,
"Girdhar Nagar,Ahmedabad, India",,
"GIDC Naroda,Ahmedabad, India",23.0908562,72.6718084
"Naranpura,Ahmedabad, India",23.0567133,72.5508575
"Gulbai Tekra,Ahmedabad, India",23.0265739,72.5489628
"Shenbhai Nagar,Ahmedabad, India",,
"Teen Hath Naka,Thane, India",19.1883779,72.9635894
"Ghatkopar East,Mumbai, India",19.0833438,72.9123246
"Vaishnodevi Circle,Ahmedabad, India",,
"Sector 63,Gurgaon, India",28.3964476,77.086498
"Gwal Pahari,Gurgaon, India",28.4326344,77.1480585
"Shantigram,Ahmedabad, India",23.1604009,72.5425111
"Bapunagar,Ahmedabad, India",23.0326239,72.6392784
"Gandhinagar,Gandhinagar, India",23.2232877,72.6492267
"Bandra Kurla Complex,Mumbai, India",19.067115,72.8657245
"Sector 60,Gurgaon, India",28.3985617,77.0978276
"Andheri,Mumbai, India",19.1196976,72.8464205
"Gokuldham,Ahmedabad, India",22.9796533,72.4561544
"Thane West,Thane, India",19.2568987,73.1328761
"Vejalpur,Ahmedabad, India",23.0069372,72.5208415
"Ranip,Ahmedabad, India",23.0766234,72.5764197
"Makar Pura,Vadodara, India",,
"Ghuma,Ahmedabad, India",23.0295113,72.4506006
"Ashram Road,Ahmedabad, India",23.0326658,72.570062
"Kolat,Ahmedabad, India",22.9552343,72.4222572
"Kadi,Mehsana, India",23.297561,72.329899
"Gurukul,Ahmedabad, India",23.0457058,72.5268056
"Sardar Patel Nagar,Ahmedabad, India",23.0304268,72.522802
"Juhapura,Ahmedabad, India",23.0040778,72.5285046
"Gota,Ahmedabad, India",23.1010002,72.5408363
"Sindhu Bhavan Marg,Ahmedabad, India",,
"Chandlodia,Ahmedabad, India",23.0836489,72.5520835
"Paldi,Ahmedabad, India",23.0145531,72.5635432
"Ognaj,Ahmedabad, India",23.1177924,72.5136803
"Palodia,Gandhinagar, India",,
"Odhav,Ahmedabad, India",23.0185001,72.6577647
"Vasna,Ahmedabad, India",23.0020055,72.5472413
"Hebatpur,Ahmedabad, India",22.1398631,72.1004929
"Motera,Ahmedabad, India",23.0917717,72.5973345
"Sanand Sarkhej Road,Ahmedabad, India",,
"Sarkhej,Ahmedabad, India",22.983483,72.5007203
"Kunvar,Ahmedabad, India",,
"Chharodi,Ahmedabad, India",23.0393458,72.2748933
"Bhatta,Ahmedabad, India",,
"Ambli,Ahmedabad, India",23.0287178,72.481643
"Bandlaguda Chandrayangutta,Hyderabad, India",17.314596,78.4701106
"Ghatlodiya,Ahmedabad, India",23.075569,72.549728
"Ramdev Nagar,Ahmedabad, India",23.0264444,72.5120935
"Thaltej Shilaj Road,Ahmedabad, India",23.0526146,72.4817156
"Sindhi Society Chembur,Mumbai, India",19.050289,72.8915885
"Chanakyapuri,Ahmedabad, India",23.086171,72.534872
"Memadpur,Ahmedabad, India",,
"Sanand Nalsarovar Road,Ahmedabad, India",,
"Howrah,Kolkata, India",22.5833648,88.3403452
"Bhat,Ahmedabad, India",23.1170709,72.6283409
"Manipur,Ahmedabad, India",23.0330965,72.4260377
"GIFT City,Gandhinagar, India",23.1629053,72.688695
"Nava Vadaj,Ahmedabad, India",23.0682238,72.5640995
"University Road,Rajkot, India",22.2880025,70.7651085
"Rangoli Party Plot,Rajkot, India",,
"Mithakhali,Ahmedabad, India",23.0311771,72.5641637
"Drive In Road,Ahmedabad, India",23.0447735,72.543826
"University Road,Ahmedabad, India",23.0389021,72.5519454
"Adajan,Surat, India",21.2651204,72.8499128
"Vaishali Nagar,Rajkot, India",,
"Gondal Road,Rajkot, India",22.2790283,70.799139
"Kalawad Road,Rajkot, India",22.2789194,70.7630299
"Nana Chiloda,Ahmedabad, India",,
"Narolgam,Ahmedabad, India",,
"Naroda,Ahmedabad, India",23.0732586,72.6508299
"Kotarpur,Ahmedabad, India",,
"Godhavi,Ahmedabad, India",23.0233196,72.4087089
"North Bopal,Ahmedabad, India",,
"New Vasna,Sabarkantha, India",,
"Premchand Nagar Society,Ahmedabad, India",,
"Ambli Bopal Road,Ahmedabad, India",23.0272876,72.5064126
"Raska,Kheda, India",22.893631,72.715373
"Science City,Ahmedabad, India",23.077854,72.494798
"Moraiya,Ahmedabad, India",22.9306513,72.4407996
"Hanspura,Ahmedabad, India",23.0810804,72.6819875
"Science Park,Ahmedabad, India",23.0796054,72.4947908
"Govindpura,Mehsana, India",,
"Kadi,Ahmedabad, India",23.3793019,72.4056842
"Shivranjani Cross Road,Ahmedabad, India",23.0243726,72.5302342
"Zundal,Ahmedabad, India",,
"Ahmedabad Cantonment,Ahmedabad, India",,
"Naroda Road,Ahmedabad, India",23.0322113,72.5997076
"Iscon Ambli Road,Ahmedabad, India",,
"Piplod,Surat, India",21.1652097,72.7757537
"Sayajigunj,Vadodara, India",22.309047,73.1851032
"Amrut Nagar,Deesa, India",,
"Lambhel,Anand, India",,
"Halol,Vadodara, India",22.4638786,73.4419006
"Valukad,Bhavnagar, India",,
"Sanodar,Bhavnagar, India",,
"Dholera,Ahmedabad, India",22.2495856,72.1959892
"Fulsar,Bhavnagar, India",,
"Roowa,Bhavnagar, India",,
"Navsari,Navsari, India",20.952407,72.9323831
"Sargasan,Gandhinagar, India",23.1842801,72.6156802
"Kudasan,Gandhinagar, India",23.1704419,72.6234269
"Adalaj,Gandhinagar, India",23.1646919,72.5821046
"Nava Naroda,Ahmedabad, India",23.0687402,72.6734956
"Muthia,Ahmedabad, India",,
"Pimple Gurav,Pune, India",18.5874457,73.8213076
"Tavarekere,Bangalore, India",12.9207814,77.6108339
"Parvat Gam,Surat, India",,
"Ghatkopar West,Mumbai, India",19.0897439,72.9048035
"Thakurdwar,Mumbai, India",18.9500139,72.8236381
"Jamnagar Road,Rajkot, India",22.317397,70.7864731
"Karanjade,Navi Mumbai, India",,
"Wagle Industrial Estate,Thane, India",19.1985175,72.9509778
"150 Feet Ring Road,Rajkot, India",22.3276253,70.7685296
"Ghanteshwer,Rajkot, India",,
"Raiya Road,Rajkot, India",22.2971274,70.795216
"Nana Mava Road,Rajkot, India",22.2729975,70.7792139
"Ramamurthy Nagar,Bangalore, India",13.0120218,77.6777817
"Shivpur,Varanasi, India",25.3620384,82.9461627
"Bulanala,Varanasi, India",,
"Maulvibagh,Varanasi, India",,
"Nagwa Lanka,Varanasi, India",,
"Mahmoorganj,Varanasi, India",25.3059635,82.9837455
"Misrod,Bhopal, India",23.1684964,77.4586234
"Rail Nagar,Rajkot, India",22.309404,70.7812427
"Bhagwatipara,Rajkot, India",,
"Asha Pura,Rajkot, India",,
"Kothariya Bye Pass,Rajkot, India",,
"Ranave Chowk,Junagadh, India",,
"Madhapar,Rajkot, India",,
"Nana Mava,Rajkot, India",22.2729975,70.7792139
"Vesu,Surat, India",21.1371079,72.788677
"Palanpur,Surat, India",21.2114559,72.7771062
"Bhatar Road,Surat, India",21.1703331,72.8156733
"Dumas Road,Surat, India",21.104229,72.7299928
"Vasai,Mumbai, India",19.3508311,72.8938078
"New citylight,Surat, India",,
"Jadishan Village,Mandal, India",,
"Mehul Nagar,Rajkot, India",,
"Althan,Surat, India",21.1476746,72.8039806
"Pipaliya,Rajkot, India",22.095403,70.7751729
"Mandal,Ahmedabad, India",23.2883831,71.9178854
"Palitana,Bhavnagar, India",21.5236104,71.8219597
"Thol Road,Gandhinagar, India",,
"Nav Sari Bajar,Surat, India",,
"Dabwali Road,Bhatinda, India",30.1737052,74.929401
"Bhugaon,Pune, India",18.5000084,73.7501119
"VIP Road,Surat, India",21.1453708,72.8051957
"Virar,Mumbai, India",19.5175313,72.8497261
"Vasai East,Mumbai, India",,
"Bhimrad,Surat, India",21.143041,72.804763
"Bhestan,Surat, India",21.1225832,72.8630342
"Saki Naka,Mumbai, India",19.108206,72.8828404
"Nagerbazar,Kolkata, India",22.6228349,88.4139318
"Govindpur,Jamshedpur, India",22.742148,86.2573528
"Jahangirabad,Surat, India",,
"Pal,Surat, India",21.1967679,72.7782724
"Punagam,Surat, India",,
"Puna,Surat, India",21.2109797,72.8816258
"Bhatha,Surat, India",,
"B R Park,Surat, India",,
"Varacha,Surat, India",,
"Pal Gam,Surat, India",,
"Vesu Canal Road,Surat, India",,
"Dahin Nagar,Surat, India",21.236846,72.7789158
"Gopi Pura,Surat, India",,
"P&T Colony,Mumbai, India",19.1717817,72.944423
"Apcha Nagar,Surat, India",,
"Garib Niwas Nagar,Surat, India",,
"Palanpur Gam,Surat, India",21.2088513,72.7719567
"Thakurli,Thane, India",19.2255622,73.0968165
"Horamavu,Bangalore, India",13.0273312,77.6601508
"Palsana,Surat, India",21.0859408,72.978046
"Dumas,Surat, India",21.0878845,72.712561
"Rundh,Surat, India",,
"Dashrath,Vadodara, India",,
"Bardoli,Surat, India",21.1338291,73.1053896
"Ring Road,Surat, India",21.18278,72.8143272
"Saroli,Surat, India",21.1832891,72.8137891
"Pranami Nagar,Ahmedabad, India",,
"Narthan,Surat, India",,
"Kamrej,Surat, India",21.2797773,72.948269
"Parvat Patia Gaon,Surat, India",,
"Parvat Patiya,Surat, India",21.179589,72.866238
"Mota Varachha,Surat, India",,
"Amroli,Surat, India",21.2375488,72.8505771
"Sarthana Jakat Naka,Surat, India",,
"Varachha Main Road,Surat, India",,
"Kumbharia Gam,Surat, India",,
"Parvat Patia,Surat, India",,
"Palan Pur Patiya,Surat, India",,
"Athwa,Surat, India",21.1779392,72.8036522
"Jahangir Pura,Surat, India",,
"Narotam Nagar,Surat, India",,
"City Light Town,Surat, India",-20.2978156,57.5370899
"Dindoli,Surat, India",21.1523213,72.8724865
"Chala,Vapi, India",20.3902664,72.8882508
"Magarpatta City,Pune, India",18.5111545,73.9273823
"Khandeshwar,Navi Mumbai, India",19.0073498,73.0952827
"Atladra,Vadodara, India",,
"Jagannath Plot,Rajkot, India",,
"Tandalja,Vadodara, India",22.2867702,73.1499454
"Nerul,Navi Mumbai, India",19.0335938,73.018164
"Dabhoi Road,Vadodara, India",22.2776417,73.2346842
"Vasna Bhayli Main Road,Vadodara, India",22.287043,73.128241
"Padra Road,Vadodara, India",22.2874745,73.1647233
"Bhayli,Vadodara, India",22.2905178,73.1269699
"Gokul Nagar,Vadodara, India",22.2791821,73.2440581
"Khatamba,Vadodara, India",,
"Tarsali,Vadodara, India",22.2571733,73.1995728
"Waghodia Road,Vadodara, India",22.2945585,73.232922
"Dharam Nagar,Rajkot, India",,
"Gulab Nagar,Rajkot, India",,
"Kapurai Village,Vadodara, India",,
"Kandivali,Mumbai, India",19.2041136,72.8517376
"Nizampura,Vadodara, India",22.3373315,73.1791996
"Gotri,Vadodara, India",22.3142488,73.1388124
"Gotri Road Gotri,Vadodara, India",22.314166,73.1427544
"Sama,Vadodara, India",22.3425199,73.202032
"Manjalpur,Vadodara, India",22.2758686,73.1879304
"Sevasi,Vadodara, India",22.3184181,73.1193683
"Vasna Road,Vadodara, India",22.2949374,73.1585091
"New Alkapuri,Vadodara, India",22.3135386,73.1810522
"Gorwa,Vadodara, India",22.3354934,73.148582
"Akota,Vadodara, India",22.2934122,73.1720458
"Sun Pharma Road,Vadodara, India",,
"Waghodia,Vadodara, India",22.3043328,73.4016768
"Atladara,Vadodara, India",22.2768734,73.1610199
"Bhatar,Surat, India",21.1736077,72.8171181
"Baner,Pune, India",18.5642431,73.7768573
"VIP Road,Vadodara, India",22.3274215,73.2122236
"Sayajipura,Vadodara, India",,
"Maneja,Vadodara, India",22.2374198,73.1886877
"Danteshwar,Vadodara, India",22.276226,73.2107907
"Kendranagar,Vadodara, India",,
"Vasant Vihar,Vadodara, India",,
"Karelibaug,Vadodara, India",,
"Laxmipura,Vadodara, India",22.321882,73.1353836
"Samiyala,Vadodara, India",,
"Kalali,Vadodara, India",22.2675604,73.1644858
"Alkapuri,Vadodara, India",22.3101726,73.1756893
"Haripura,Vadodara, India",22.3076346,73.1659044
"Diwalipura,Vadodara, India",22.300937,73.156256
"Ajwa Road,Vadodara, India",22.3030966,73.2268043
"Chhani,Vadodara, India",22.3625714,73.1712952
"New Gotri,Vadodara, India",,
"New Kareli Baug,Vadodara, India",,
"Mansa,Gandhinagar, India",23.425103,72.6583024
"Nehru Chacha Nagar,Vadodara, India",,
"Aundh,Pune, India",18.5618834,73.8101957
"Sachin,Surat, India",21.0778781,72.8744643
"Sayaji Path,Vadodara, India",,
"Soma Talav,Vadodara, India",22.2723372,73.225551
"Madhavpura,Vadodara, India",,
"Anand Nagar,Vadodara, India",,
"Vadsar,Vadodara, India",,
"Subhanpura,Vadodara, India",22.3213939,73.1549782
"Race Course Road,Vadodara, India",22.3083672,73.1617948
"Sindhrot,Vadodara, India",22.3184181,73.1193683
"Hadapsar,Pune, India",18.5007741,73.9379146
"Warasiya,Vadodara, India",,
"Phursungi,Pune, India",18.4572003,74.0021566
"Akota Road,Vadodara, India",22.2966696,73.1706971
"Saiyed Vasna,Vadodara, India",22.3033795,73.147326
"Chhani Jakat Naka,Vadodara, India",,
"Lower Parel,Mumbai, India",18.99568,72.8302756
"Umeta,Vadodara, India",,
"Vemali,Vadodara, India",,
"Old Padra Road,Vadodara, India",22.2874745,73.1647233
"Ramwadi,Vadodara, India",,
"Gotri Sevasi Road,Vadodara, India",,
"Action Area 3,Kolkata, India",22.5569919,88.4991673
"Sector 70,Gurgaon, India",28.3947261,77.0223138
"Sector 71,Gurgaon, India",28.4064564,77.0233125
"Sector 117,Noida, India",28.4708204,77.5310963
"Sector-97,Mohali, India",30.6704003,76.6861152
"Dadar West,Mumbai, India",19.0238887,72.8382236
"Sector 69,Gurgaon, India",28.3960701,77.0372311
"Nallambakkam,Chennai, India",,
"Sohna Road,Faridabad, India",,
"NH 71B,Rewari, India",,
"Kolar Road Janki Nagar,Bhopal, India",23.2131026,77.4192845
"Kurla East,Mumbai, India",19.0628944,72.8825604
"Sector 50,Gurgaon, India",28.4166536,77.0611745
"PI 2,Greater Noida, India",28.4733159,77.542418
"Sector 45,Gurgaon, India",28.4449004,77.0663545
"South City 2,Gurgaon, India",28.4188806,77.0439211
"South City 1,Gurgaon, India",28.4188433,77.0440293
"Sector 5 Vaishali,Ghaziabad, India",28.6471629,77.3346949
"Nirvana Country,Gurgaon, India",28.4150509,77.0642955
"Jopling Road,Lucknow, India",26.8558151,80.9589326
"N H 1 Ambala,Ambala, India",,
"Sector 38,Noida, India",28.5581844,77.329477
"Chi 3,Greater Noida, India",28.4375939,77.513933
"Sector 29,Gurgaon, India",28.4669197,77.0671306
"Sector 96,Noida, India",28.5442032,77.3469943
"Sector 46,Gurgaon, India",28.4359133,77.0584045
"Butler Colony,Lucknow, India",,
"Kundanoor,Kochi, India",9.9367681,76.318371
"Banashankari,Bangalore, India",12.9278196,77.556621
"Sector 91,Chandigarh, India",30.7056233,76.742761
"Delhi Road,Rewari, India",28.6137467,77.1084836
"Sector 32,Gurgaon, India",28.4458035,77.0413169
"Sector 21,Gurgaon, India",28.5143629,77.0730087
"Sector 10 Rohini,New Delhi, India",28.7194201,77.1096302
"Sector 51,Gurgaon, India",28.4287011,77.0666877
"Sector 41,Gurgaon, India",28.4569188,77.0646046
"Sector MU,Greater Noida, India",,
"Sector 71,Chandigarh, India",30.7316375,76.791983
"Perambur,Chennai, India",13.1121242,80.245022
"Uttarahalli,Bangalore, India",12.9055682,77.5455438
"Udyog Vihar,Gurgaon, India",28.4917349,77.0819718
"Kasba,Kolkata, India",22.5044355,88.3721663
"JP Nagar,Bangalore, India",12.9096941,77.5866067
"Sector 70A,Gurgaon, India",28.3846684,77.0220391
"Sector 84,Faridabad, India",28.3809129,77.3718227
"Sector 75,Faridabad, India",28.3703893,77.3721153
"Sector 88,Faridabad, India",28.4157188,77.3542573
"Sector 77,Faridabad, India",28.3703893,77.3721153
"Sector 81,Faridabad, India",28.3809129,77.3718227
"Sector 82,Faridabad, India",28.4031478,77.3105561
"Sector 80,Faridabad, India",28.4031478,77.3105561
"Sector 85,Faridabad, India",28.3809129,77.3718227
"Sector 37D,Gurgaon, India",28.4480039,76.9697682
"Neharpar,Faridabad, India",,
"Sector 76,Faridabad, India",28.3703893,77.3721153
"Sector 57,Gurgaon, India",28.4232478,77.0804487
"Sector 86,Faridabad, India",28.40682,77.3425261
"Udyog Vihar Phase 4,Gurgaon, India",28.4971745,77.0813511
"Sector 89,Faridabad, India",28.4210246,77.3667617
"Gomti Nagar Extension Bypass Road,Lucknow, India",,
"Mullanpur Garibdass,Mohali, India",,
"Balya Kheda,Indore, India",,
"Pakhowal Road,Ludhiana, India",30.8810554,75.8200592
"Omex City,Lucknow, India",,
"Amar Shaheed Path,Lucknow, India",,
"Naini,Allahabad, India",25.3926726,81.8590806
"Mayakhedi,Indore, India",,
"Sector 79,Faridabad, India",28.3808663,77.3573924
"Sector 15,Bahadurgarh, India",24.4477838,77.1502581
"Chaitanya Vihar,Vrindavan, India",27.5684072,77.6723686
"Chhatikara Road,Vrindavan, India",,
"Alwar Bypass Road,Bhiwadi, India",,
"Sarojani Nagar,Lucknow, India",26.8259652,80.779569
"Sarojini Nagar,Lucknow, India",26.7513539,80.8677915
"Indra Chowk,Rudrapur, India",28.9706445,79.3972833
"Madhya Marg,Chandigarh, India",30.7547299,76.7791906
"Chandni Chowk,New Delhi, India",,
"Omaxe City 1,Indore, India",,
"Sector 93B,Noida, India",28.5126128,77.3900479
"Omega 2,Greater Noida, India",,
"Indore Bypass Road,Indore, India",,
"Omaxe,Bhiwadi, India",28.1456837,76.8121769
"Sector 98,Faridabad, India",28.3809129,77.3718227
"Sidcul,Rudrapur, India",29.0013152,79.4175248
"Sector 93,Noida, India",28.5229507,77.3861165
"Sector 78,Faridabad, India",28.3809129,77.3718227
"Haldwani Road,Rudrapur, India",,
"Sector 14,Bahadurgarh, India",24.284407,77.1282608
"Sector 92,Noida, India",28.5181771,77.394897
"Jhajjar Road,Rohtak, India",28.7719671,76.7704415
"Surajkund,Faridabad, India",28.4836699,77.283006
"Thakkarwal,Ludhiana, India",,
"Beta 2,Greater Noida, India",28.484866,77.5134595
"Sector-4A,Bahadurgarh, India",,
"Omaxe City,Palwal, India",,
"Civil Lines,Ludhiana, India",30.91148,75.8473526
"Eco City 1,Chandigarh, India",,
"Sector 42,Faridabad, India",28.4031478,77.3105561
"Sushant Lok 2,Gurgaon, India",28.4227953,77.0868304
"Sector 112,Noida, India",28.6276195,77.3818692
"Noida Greater Noida Expressway,Noida, India",28.4610024,77.4630568
"Sector 73,Mohali, India",30.7176731,76.6986251
"Goniana Road,Bhatinda, India",30.217635,74.9409749
"Pantnagar,Rudrapur, India",29.0330763,79.4718513
"NH 2,Agra, India",27.2063803,78.0314175
"Baropiwala,Baddi, India",,
"Khanbhag,Sangli, India",16.8579047,74.5718032
"Bhambori,Jaipur, India",,
"Ansal Golf Links 1,Greater Noida, India",28.4534825,77.5066876
"Sector 111,Gurgaon, India",28.5222773,77.0336203
"Tollygunge,Kolkata, India",22.498636,88.3453908
"Sector 2,Greater Noida, India",28.470643,77.5317254
"Sector 39,Faridabad, India",28.4031478,77.3105561
"Charmwood Village,Faridabad, India",,
"Nehru Place,New Delhi, India",28.5480268,77.2534172
"Vaishali,Ghaziabad, India",28.6496701,77.339575
"Badarpur,New Delhi, India",,
"Sector 37,Faridabad, India",28.4797316,77.3118598
"Sector 41,Faridabad, India",28.3809129,77.3718227
"Sector 48,Faridabad, India",28.4046706,77.2864989
"Sector 21C,Faridabad, India",28.4301575,77.2956062
"Thiruninravur,Chennai, India",13.2622679,80.0280928
"Sector 97,Faridabad, India",28.3809129,77.3718227
"Greenfield Colony,Faridabad, India",28.4635555,77.2938106
"Bandra East,Mumbai, India",19.0616565,72.8498111
"Horamavu Agara,Bangalore, India",13.037817,77.6504617
"Mogappair,Chennai, India",13.0835142,80.1840779
"Bhopani,Faridabad, India",,
"Sector 28,Faridabad, India",28.4382044,77.3090567
"Sector 72,Faridabad, India",28.3809129,77.3718227
"Molarband Extension,New Delhi, India",,
"Ashoka Enclave,Faridabad, India",,
"Grand Trunk Road,Karnal, India",29.5383256,76.9730111
"Sector 15 Part 2,Gurgaon, India",28.4646148,77.0299194
"Modi Puram,Meerut, India",,
"Grand Trunk Road,Amritsar, India",31.6048454,74.5755713
"NH - 1,Karnal, India",29.7193177,76.9826655
"Sector 45,Karnal, India",29.6737682,76.9966421
"Taraori,Karnal, India",29.800459,76.9273776
"Sector 28,Karnal, India",29.6803266,76.9896254
"Digmore,Fatehabad, India",,
"Daburji,Amritsar, India",,
"Sidhwan Canal Road,Ludhiana, India",,
"Sector 59,Gurgaon, India",28.4030162,77.1066682
"Sector 4,Panchkula, India",30.6902599,76.8606995
"Faridabad Gurgaon Road,Gurgaon, India",28.4394234,77.1268065
"Sector 58,Gurgaon, India",28.4160012,77.1085564
"Sector 67A,Gurgaon, India",28.4753259,77.0258279
"Pinjore,Panchkula, India",30.8042411,76.9149498
"Udyog Vihar Phase 3,Gurgaon, India",28.4971745,77.0813511
"Jawahar Lal Nehru Marg,Jaipur, India",,
"C-Scheme,Jaipur, India",26.9212858,75.792766
"Sector-33,Kaithal, India",29.7996588,76.3989903
"Sector 6,Gurgaon, India",28.4753259,77.0258279
"NH-2,Vrindavan, India",27.5753726,77.6938045
"Sikar Road,Jaipur, India",26.949528,75.7722515
"Sector 35 Suncity Township I,Rohtak, India",,
"Jhotwara,Jaipur, India",26.9585861,75.7527694
"Sonipat Road,Rohtak, India",28.896247,76.6181231
"Chittaranjan Avenue,Kolkata, India",22.5725799,88.3588567
"Sector 14,Panchkula, India",30.6793228,76.845908
"Raipur Rani,Panchkula, India",30.5334707,76.9921742
"Sector-6,Palwal, India",29.9501038,76.8725766
"Sector 27 Panchkula Extension,Panchkula, India",,
"Subhash Nagar,Rohtak, India",,
"Palwali,Faridabad, India",,
"Sector 12,Panchkula, India",30.6812724,76.8577882
",Tapowan, India",20.6622604,76.0847813
"Sector 16,Sonipat, India",28.9953758,77.0233627
"Shelu,Thane, India",,
"Sector 16,Panchkula, India",30.6931797,76.837229
"Chandigarh Panchkula Road,Panchkula, India",30.6990536,76.8357208
"Sector 24 Panchkula Extension,Panchkula, India",,
"Sushant Golf City,Lucknow, India",26.7801794,81.0247541
"Crossings Republik,Ghaziabad, India",28.6284686,77.434157
"Kharar Landran Road,Mohali, India",,
"Ashok Nagar,Jaipur, India",26.8974037,75.7612374
"Aliganj,Lucknow, India",26.90515,80.9479913
"Kundli,Sonipat, India",28.8696747,77.1198167
"Chamrawali Bodaki,Greater Noida, India",,
"Kalwar Road,Jaipur, India",26.9437399,75.7525074
"Chandigarh Enclave,Mohali, India",,
"Shastri Puram,Agra, India",,
"Sushant city,Meerut, India",28.9445379,77.642467
"Sector 35,Sonipat, India",28.9953758,77.0233627
"Sector 116,Mohali, India",30.7142419,76.6582202
"Kanpur Road,Lucknow, India",26.7762656,80.9019321
"Phase 1 Sector 55,Mohali, India",,
"Sushant City,Jodhpur, India",,
"KMP Expy,Sonipat, India",,
"Sector 2,Gurgaon, India",28.5090499,77.0342831
"Sector 114,Mohali, India",30.701217,76.653285
"Ansal API Golf City,Lucknow, India",,
"Mansa Road,Bhatinda, India",30.1389155,74.9920358
"Sector 5,Kurukshetra, India",29.9710874,76.8835148
"Jalandhar Cantt,Jalandhar, India",31.308375,75.599961
"Gurdev Nagar,Ludhiana, India",,
"Rakh Bagh,Ludhiana, India",,
"GT Karnal Road,New Delhi, India",28.6846877,77.1963064
"Nayi Sadak,Jodhpur, India",,
"Tilak Nagar,Bhilwara, India",,
"Manchwa,Jaipur, India",,
"Kalwar,Jaipur, India",26.9863739,75.5856156
"Adarsh Nagar,Jaipur, India",26.8986698,75.8163567
"Sector 142,Noida, India",28.5705399,77.3228931
"Gautam budh nagar,Greater Noida, India",28.4492122,77.5281018
"Sector 97,Noida, India",28.5404633,77.3540746
"Sector 94,Noida, India",28.5510172,77.323759
"Sector 113,Gurgaon, India",28.5286649,77.0250282
"Sector 72,Noida, India",28.6114861,77.3777821
"NH 1,Panipat, India",29.3912753,76.9771675
"Sector 74,Gurgaon, India",28.4110081,77.0101209
"Sector 68,Gurgaon, India",28.388897,77.0459859
"Sector 107,Gurgaon, India",28.506941,76.9752137
"Jagadhri,Yamunanagar, India",30.1532045,77.3011957
"Sector 37C,Gurgaon, India",28.4489095,76.9880502
"Sector-40,Panipat, India",29.3787253,76.9926784
"Ashok Nagar,Rohtak, India",28.6716045,77.155291
"Sector 27,Rohtak, India",28.9010899,76.5801935
"Sector 37,Rohtak, India",28.9010899,76.5801935
"Gohana Road,Rohtak, India",28.9172832,76.5940109
"IIM Road,Lucknow, India",,
"Sector 17 Dwarka,New Delhi, India",28.5592726,77.0666248
"Bijnor Road,Lucknow, India",,
"Sector 119,Noida, India",28.4707135,77.5311759
"Grand Trunk Road,Sonipat, India",29.0761014,77.0596192
"Sector 33,Sonipat, India",28.9953758,77.0233627
"Sitapur Road,Lucknow, India",26.972815,80.9245445
"Jaitikhera,Lucknow, India",,
"neemrana,Alwar, India",27.9918589,76.3844141
"Nakodar Noad,Jalandhar, India",,
"NH-1,Ludhiana, India",30.9090157,75.851601
"Kalyan Pur,Kanpur, India",,
"Omicron 1,Greater Noida, India",28.4626933,77.5623219
"NH-8,Neemrana, India",27.9921616,76.3856561
"Omicron 2,Greater Noida, India",28.4675617,77.5572168
"Sector 48,Noida, India",28.5567103,77.3687445
"Phi 1,Greater Noida, India",28.4432551,77.5221103
"Eldeco Udyan II,Lucknow, India",,
"Mathura Road,Faridabad, India",28.3650553,77.314851
"G.T. Karnal Road,Panipat, India",,
"Bara Sirohi,Kanpur, India",,
"Hussainpura,Ludhiana, India",,
"Hazratganj,Lucknow, India",26.8475285,80.9432003
"Udyan-2,Lucknow, India",,
"New Hyderabad,Lucknow, India",,
"Jawahar Puram,Kanpur, India",,
"Vrindavan Colony,Lucknow, India",,
"Bangla Bazar,Lucknow, India",,
"Sector 14,Sonipat, India",28.99728,77.0314296
"Sector 26,Sonipat, India",28.9953758,77.0233627
"Sector 27,Sonipat, India",28.9953758,77.0233627
"Sector 110,Mohali, India",30.6703448,76.6657948
"TDI City Kundli,Sonipat, India",,
"TDI City,Moradabad, India",,
"Batla chowk,Jalandhar, India",,
"Sector 17,Chandigarh, India",30.7400652,76.7825889
"Sector 111,Mohali, India",30.6786313,76.6628122
"Sector 39,Sonipat, India",28.9953758,77.0233627
"Sector 30,Sonipat, India",28.9953758,77.0233627
"Sector 63,Sonipat, India",29.000174,77.0395075
"Sector 64,Sonipat, India",28.9879576,77.0425537
"Sector 88,Mohali, India",30.6832448,76.6913938
"Rajaji National Park,Haridwar, India",30.1068945,78.0214813
"NH-58,Haridwar, India",29.9214038,78.1118665
"Roshanabad,Haridwar, India",29.9731984,78.0571327
"Roorkee,Haridwar, India",29.8693496,77.8902124
"Tingre Nagar,Pune, India",18.5847495,73.8927069
"Sector 4,Kurukshetra, India",29.9598121,76.8825898
"Sector 12,Sonipat, India",28.9879576,77.0425537
"Sector 28,Sonipat, India",28.9953758,77.0233627
"Bharari,Shimla, India",31.1237707,77.1765395
"Kasauli,Kasauli, India",30.8999479,76.9619744
"Bharari Road,Shimla, India",31.1434737,77.1546859
"Fagu,Shimla, India",31.0869772,77.3033208
"Sector 70,Noida, India",28.5976614,77.3842607
"Sector 121,Noida, India",28.471143,77.5312609
"New Shimla,Shimla, India",31.0845266,77.1703168
"Sarai Dhela,Dhanbad, India",,
"Bhuli Hirak Road,Dhanbad, India",,
"Hans Vihar Colony,Dhanbad, India",,
"Karjat,Raigad, India",18.9127655,73.3228202
"Marine Lines,Mumbai, India",18.945764,72.8237193
"Gobindpur,Dhanbad, India",23.8736925,86.4673961
"Zaheerabad Main Road,Hyderabad, India",,
"Panchasayar,Kolkata, India",22.4760526,88.3970768
"Korattur,Chennai, India",13.1115484,80.1846272
"Garfa,Kolkata, India",22.5061454,88.3839756
"Khar West,Mumbai, India",19.0612409,72.8245069
"Andal,Durgapur, India",23.5682574,87.2080142
"Babudih,Dhanbad, India",,
"Kasturba Nagar,Dhanbad, India",23.7999992,86.4323271
"Amaghata,Dhanbad, India",,
"Nawadih,Dhanbad, India",,
"Chandra Vihar Colony,Dhanbad, India",,
"Dhaiya,Dhanbad, India",23.8028532,86.4272546
"Adityapur,Jamshedpur, India",22.76701,86.1688486
"Pundag,Ranchi, India",23.343891,85.272278
"Kalakusuma,Dhanbad, India",,
"Namkum,Ranchi, India",23.2790977,85.3946302
"Mango,Jamshedpur, India",22.8153862,86.2116742
"Jharudih,Dhanbad, India",23.8067921,86.4189343
"Muchipara,Durgapur, India",23.5041197,87.3530115
"Upper Bazar,Ranchi, India",23.3725427,85.3172631
"Kusum Vihar,Dhanbad, India",,
"Ashok Nagar,Ranchi, India",23.348949,85.3052082
"Patelnagar,Ranchi, India",,
"Singh More,Ranchi, India",23.3022807,85.3142407
"Dobo,Jamshedpur, India",,
"Kadma,Jamshedpur, India",22.8098649,86.1653564
"Sonari Town,Jamshedpur, India",,
"Telco Colony,Jamshedpur, India",,
"Dimna,Jamshedpur, India",22.8407033,86.2243295
"Namda Basti,Jamshedpur, India",,
"Azad Nagar,Jamshedpur, India",,
"Gamharia,Jamshedpur, India",22.8256765,86.1331011
"Sakchi,Jamshedpur, India",,
"Moharda,Jamshedpur, India",,
"Bistupur,Jamshedpur, India",22.7941282,86.1834418
"Baridih,Jamshedpur, India",22.7970613,86.2447787
"Circuit House Area,Jamshedpur, India",,
"Hirapur,Dhanbad, India",23.7991476,86.4403063
"Dhalbhumgarh,Jamshedpur, India",,
"Saraikela,Jamshedpur, India",,
"Chowka,Jamshedpur, India",,
"Dugni,Jamshedpur, India",,
"Chandil,Jamshedpur, India",,
"Rudrapur,Bhubaneswar, India",,
"Sector 99,Gurgaon, India",28.4645549,76.9628585
"Dumuduma,Bhubaneswar, India",20.2447525,85.7920272
"Sector 135,Noida, India",28.4980046,77.4000326
"Oyna,Ranchi, India",,
"Lalpur,Ranchi, India",23.375328,85.3384361
"Guduvancheri,Chennai, India",12.8439997,80.0603546
"Chandwe,Ranchi, India",23.4114244,85.3146797
"Kanke,Ranchi, India",23.4613962,85.3274961
"Chiraundi,Ranchi, India",23.4099758,85.3403056
"Khar,Mumbai, India",19.0682411,72.8400412
"Ormanjhi,Ranchi, India",23.506051,85.4737115
"Hutup,Ranchi, India",,
"Jessore Road,Kolkata, India",22.6080961,88.3942426
"Girgaon,Mumbai, India",18.9543165,72.8179082
"Boreya,Ranchi, India",23.4308645,85.3333725
"BIT Mesra,Ranchi, India",23.4175695,85.4394094
"Tupudana,Ranchi, India",23.2672312,85.3081941
"Buti More,Ranchi, India",,
"Bariatu Road,Ranchi, India",,
"Hatma,Ranchi, India",23.3875996,85.3334123
"Kumharia,Ranchi, India",,
"Jamuari,Ranchi, India",,
"Agaramthen,Chennai, India",,
"Dibdih,Ranchi, India",,
"Kantatoli,Ranchi, India",,
"Hatia,Ranchi, India",23.3094048,85.3084951
"Argora,Ranchi, India",23.3504514,85.2926682
"Kampu,Gwalior, India",,
"Club Road,Ranchi, India",23.3539142,85.3286816
"Kishore Ganj,Ranchi, India",,
"Hawai Nagar,Ranchi, India",,
"Daudnagar,Ranchi, India",,
"Bhumiartoli,Ranchi, India",,
"Ratu Road,Ranchi, India",23.3931931,85.2690482
"Bariatu,Ranchi, India",23.3750646,85.2762115
"Vijaynagar,Belgaum, India",,
"Hindwadi,Belgaum, India",15.8343621,74.5182582
"Tilakwadi,Belgaum, India",15.8368581,74.5019281
"Nanawadi,Belgaum, India",15.8429556,74.4954843
"Sadashiv Nagar,Belgaum, India",15.8782951,74.5084834
"Udyambag,Belgaum, India",15.8174629,74.4926262
"Belagavi,Belgaum, India",15.8490568,74.5089431
"Bhagya Nagar,Belgaum, India",15.8306754,74.5066809
"Kakati,Belgaum, India",,
"Parvathi Nagar,Bellary, India",15.1520407,76.9248633
"AnjanaPura,Bangalore, India",12.8601312,77.5540587
"Sulur,Coimbatore, India",10.9890537,77.1014971
"Athipalayam,Coimbatore, India",11.1291418,76.9807251
"Cumbum,Theni, India",9.7394057,77.2853013
"Soorapattu,Chennai, India",,
"Solar,Erode, India",11.3194291,77.7519875
"Viraganur,Madurai, India",9.9005203,78.162842
"Metupalayam,Coimbatore, India",,
"Kuthambakkam,Chennai, India",,
"Woraiyur,Trichy, India",10.8280539,78.6731113
"Veerapandi,Coimbatore, India",11.1696024,76.9516148
"Viswas Nagar,Trichy, India",10.8158345,78.7091785
"Mahindra World City,Chennai, India",,
"Singaperumal Koil,Chennai, India",,
"Periyar,Madurai, India",10.0467592,78.1663701
"Ramanathapuram,Coimbatore, India",10.9947773,76.99213
"Red Hills,Chennai, India",13.1649493,80.1816203
"Mathigiri,Hosur, India",12.6928265,77.8062946
"Pannimadai,Coimbatore, India",11.0856589,76.9164154
"Nanjundapuram,Coimbatore, India",10.9766213,76.9951886
"Thiruvallur,Chennai, India",13.1123034,80.1471697
"Panjappur,Trichy, India",10.7542032,78.6557842
"Tirunelveli Town,Tirunelveli, India",8.7275525,77.6884889
"Mathur,Trichy, India",,
"Kovilpalayam,Coimbatore, India",11.1376235,77.0363987
"Kalapatti,Coimbatore, India",11.0787684,77.0370419
"Vagaikulam,Tuticorin, India",,
"Neelankarai,Chennai, India",12.9454955,80.2574692
"SIHS Colony,Coimbatore, India",,
"Maraimalai Nagar,Chennai, India",13.018875,80.2246142
"Paranur,Chennai, India",,
"Valarpuram,Chennai, India",,
"CGE Colony,Tuticorin, India",,
"Ambattur,Chennai, India",13.1193746,80.1507648
"Kappalur,Madurai, India",9.843768,78.0162763
"Saravanampatti,Coimbatore, India",11.0747296,77.0027116
"Arasur,Coimbatore, India",11.0861923,77.1142844
"Vellalore,Coimbatore, India",10.9771983,77.0057346
"Udumalpet,Tirupur, India",,
"Kovai Pudur,Coimbatore, India",10.9710579,76.8888297
"Reddiarpatty,Tirunelveli, India",,
"Ponnagaram,Dindigul, India",,
"Thachanallur,Tirunelveli, India",8.7469478,77.7025652
"Karanodai,Chennai, India",,
"pollachi,Coimbatore, India",10.6588234,77.00873
"Mandela Nagar,Madurai, India",,
"Srirangam,Trichy, India",10.8573308,78.6930848
"Puzhal,Chennai, India",13.1636492,80.2038067
"RR Nagar,Mysore, India",12.3410563,76.6662609
"Uthandi,Chennai, India",12.8687677,80.247209
"Porur,Chennai, India",13.0320131,80.158304
"Ambur,Tirupattur, India",12.7874171,78.7188211
"Thirunagar,Trichy, India",,
"Medavakkam,Chennai, India",12.9229928,80.1882897
"Siruseri,Chennai, India",12.8012825,80.1991871
"Pattanam,Coimbatore, India",10.9804139,77.0551872
"Singanallur,Coimbatore, India",11.0124691,77.0391191
"Ring Road,Mysore, India",12.3499538,76.643999
"Edayarpalayam,Coimbatore, India",11.26246,77.1036692
"BN Reddy Nagar,Hyderabad, India",17.462147,78.5921097
"Thoraipakkam,Chennai, India",12.948567,80.1956323
"New Perungalathur,Chennai, India",12.9216163,80.0935766
"Thiruvanaikoil,Trichy, India",,
"Cantonment,Bellary, India",15.1571808,76.8906069
"Karapakkam,Chennai, India",12.9117073,80.2277203
"Mandaiyur,Trichy, India",10.65516,78.72144
"Peelamedu,Coimbatore, India",11.0269577,76.9945813
"Madhavaram,Chennai, India",13.1429313,80.2325166
"Neelambur,Coimbatore, India",11.0644299,77.0861309
"Somanur,Coimbatore, India",11.086873,77.1857437
"Chinnavedampatti,Coimbatore, India",11.0629428,76.9843304
"Arakkonam,Vellore, India",13.0744037,79.6715774
"Avinashi Road,Coimbatore, India",11.0484876,77.05559
"Rajakilpakkam,Chennai, India",,
"Thiruverkadu,Chennai, India",13.0983878,80.1349581
"Podunur,Coimbatore, India",,
"Sholinganallur,Chennai, India",12.9174426,80.2164902
"Nallampalayam,Coimbatore, India",11.0408836,76.9547225
"Othakal Mandapam,Coimbatore, India",,
"Navalur,Chennai, India",12.8445841,80.2264618
"Palathurai,Coimbatore, India",10.8825295,76.9543402
"Kundrathur,Chennai, India",13.0306501,80.1529176
"Kovilambakkam,Chennai, India",12.9392427,80.1825888
"Vellakinar,Coimbatore, India",11.0733308,76.9558099
"Pallavaram Thuraipakkam Road,Chennai, India",12.9464043,80.2313393
"Urapakkam,Chennai, India",,
"Perungalathur,Chennai, India",12.9256549,80.10437
"Thandalam,Chennai, India",13.0114615,80.1274115
"Havambavi,Bellary, India",,
"Manuganahalli,Mysore, India",,
"Bogadi Road,Mysore, India",12.3063574,76.6265408
"Bettadur,Mysore, India",,
"Keshwapur,Hubli, India",15.3620389,75.1517872
"Chikka Tirupathi,Kolar, India",12.8957681,77.8671014
"Kusugal,Hubli Dharwad, India",,
"NH 4,Dharwad, India",15.4540505,75.0066516
"Vijaya nagar,Mysore, India",,
"Shyadanahalli,Mysore, India",,
"Gokul Road,Hubli, India",15.3549819,75.0887119
"Chikkaballapur,Bangalore, India",13.0993764,77.388729
"Elavala,Mysore, India",,
"Hunsur Road,Mysore, India",12.3211644,76.618713
"Bogadhi,Mysore, India",,
"Basaveshwar Nagar,Bangalore, India",12.9728678,77.6094161
"Gokul,Hubli, India",15.3509796,75.1191156
"Bannur Road,Mysore, India",12.3054512,76.6926264
"Dharwad,Dharwad, India",15.4540505,75.0066516
"Santosh Nagar,Hubli, India",15.375364,75.1366989
"Yelahanka New Town,Bangalore, India",13.0978039,77.5811889
"Malur,Kolar, India",13.0058697,77.9393648
"Basavanagudi,Bangalore, India",12.9417261,77.5755021
"Hosur Road,Bangalore, India",12.9225076,77.6193904
"Electronic City Phase 2,Bangalore, India",12.8468545,77.6769267
"Rajarajeshwari Nagar,Bangalore, India",12.9274413,77.5155224
"Anekal Main Road,Bangalore, India",12.7407988,77.7091003
"Jayanagar,Bangalore, India",12.9292731,77.5824229
"Hesarghatta Road,Bangalore, India",13.0860096,77.5484306
"Baghajatin,Kolkata, India",22.4827391,88.3866708
"Doddaballapur Main Road,Bangalore, India",,
"Ottiambakkam,Chennai, India",12.8890331,80.1845308
"Jakkur,Bangalore, India",13.0784743,77.6068938
"Kogilu,Bangalore, India",13.1067228,77.6173956
"Sarjapura Attibele Road,Bangalore, India",,
"Varthur,Bangalore, India",12.9406508,77.746988
"Bhoganhalli,Bangalore, India",,
"Doddakannelli,Bangalore, India",12.9115381,77.6934164
"Hennur,Bangalore, India",13.037077,77.6413572
"Marathahalli,Bangalore, India",12.9552572,77.6984163
"Kadugodi,Bangalore, India",12.9957428,77.7579489
"Thubarahalli,Bangalore, India",12.9547872,77.7213154
"Munnekollal,Bangalore, India",,
"Hosahalli,Bangalore, India",12.9660431,77.5414979
"Belathur,Bangalore, India",12.9989822,77.7408733
"AECS Layout,Bangalore, India",12.964118,77.7130369
"Budigere,Bangalore, India",13.1351506,77.7471989
"Jangamakote,Bangalore, India",13.2615925,77.8469831
"Kengeri,Bangalore, India",12.9176571,77.4837568
"Mannagudda,Mangalore, India",12.8819149,74.8353565
"Punawale,Pune, India",18.6382904,73.7461948
"Shiribeedu,Udupi, India",,
"Ponmar,Chennai, India",,
"Bannerghatta,Bangalore, India",12.9104248,77.6001651
"NH 4,Kolar, India",13.1367201,78.1337246
"Chandapura,Bangalore, India",12.8009043,77.7114908
"HSR Layout,Bangalore, India",12.9116225,77.6388622
"Kolar Road,Kolar, India",23.1877926,77.4171827
"Vemagal,Kolar, India",13.1923524,78.0193456
"Siddhartha Vihar,Ghaziabad, India",,
"Yemalur,Bangalore, India",12.9454643,77.6805505
"RMV Extension Stage 2,Bangalore, India",13.0222132,77.5781101
"Bellary Road,Bangalore, India",13.0240965,77.5849006
"Rajendranagar Mandal,Hyderabad, India",17.3615965,78.4276746
"Marathahalli Sarjapur Outer Ring Road,Bangalore, India",,
"Rashtriya Vidyalaya Road,Bangalore, India",12.9208895,77.5801803
"Kadubeesanahalli,Bangalore, India",12.9366107,77.7047322
"Anna Nagar,Chennai, India",13.0872004,80.2164421
"Infantry Road,Bangalore, India",12.9800059,77.6050006
"Shivaji Nagar,Bangalore, India",12.988325,77.6004488
"Sampangi rama Nagar,Bangalore, India",12.9666076,77.5925094
"Raja Ram Mohanroy Extension,Bangalore, India",,
"Derelakatai,Mangalore, India",,
"Nandi Hills,Bangalore, India",13.5379282,77.7324372
"Rajanukunte,Bangalore, India",13.1691299,77.5599986
"Cooke Town,Bangalore, India",13.0021998,77.6251814
"Magadi Main Road,Bangalore, India",12.9836286,77.5540526
"HAL Old Airport Road,Bangalore, India",12.9628509,77.6273702
"Bagalur Main Road,Bangalore, India",13.0887495,77.6547635
"Richmond Town,Bangalore, India",12.963555,77.6015856
"Haralur Main Road,Bangalore, India",,
"Victoria Layout,Bangalore, India",12.9656579,77.6142682
"Cunningham Road,Bangalore, India",12.983184,77.598541
"Richmond Road,Bangalore, India",12.96623,77.6067814
"Frazer Town,Bangalore, India",12.9975851,77.6136744
"Vasanth Nagar,Bangalore, India",12.9921738,77.591459
"Halasuru,Bangalore, India",12.9778793,77.6246697
"Mathikere,Bangalore, India",13.0333587,77.5581786
"Jalahalli,Bangalore, India",13.0394104,77.5197351
"Kismatpur,Hyderabad, India",17.3316182,78.4033571
"Benson Town,Bangalore, India",12.997343,77.6036815
"Vittal Mallya Road,Bangalore, India",12.9719747,77.5945187
"Ambalipura,Bangalore, India",12.9173303,77.667161
"Richards Town,Bangalore, India",13.0042369,77.6170601
"Kensington Road,Bangalore, India",12.9846156,77.6223961
"Ashok Nagar,Bangalore, India",12.9694359,77.6092319
"Vidyaranyapura,Bangalore, India",13.0766407,77.5577315
"Iyyappanthangal,Chennai, India",,
"Gottigere,Bangalore, India",12.8565317,77.5877237
"Kammanahalli,Bangalore, India",13.0148544,77.6382029
"Hitech City,Hyderabad, India",17.469728,78.3852406
"Bejai,Mangalore, India",12.8915786,74.8414688
"Cox Town,Bangalore, India",12.9934859,77.6251081
"KK Nagar West,Chennai, India",13.0441391,80.1933467
"Lavelle Road,Bangalore, India",12.9683401,77.5965067
"Shanthala Nagar,Bangalore, India",12.9714173,77.5994394
"Asif Nagar,Hyderabad, India",17.3857483,78.4505083
"Falnir,Mangalore, India",12.8711403,74.849112
"Greams Road,Chennai, India",13.0568226,80.25514
"Marine Drive,Ernakulam, India",9.9784782,76.2757727
"Fathenagar,Hyderabad, India",17.4598339,78.4525504
"Bommasandra,Bangalore, India",12.816016,77.6892217
"Huvinayakanahalli,Bangalore, India",13.1478821,77.6896848
"Mysore Road,Bangalore, India",12.9466619,77.5300896
"Mogappair West Ambattur Industrial Estate,Chennai, India",,
"Moti Nagar,Hyderabad, India",17.4508069,78.422242
"Palace Road,Bangalore, India",12.9843763,77.5879426
"Rachenahalli Main Road,Bangalore, India",13.0573325,77.627428
"Chikkanagamangala,Bangalore, India",12.8565333,77.6927891
"Mysore City,Mysore, India",12.3035147,76.6521933
"Cambridge Layout,Bangalore, India",13.0076285,77.7258775
"Metagalli,Mysore, India",12.347751,76.6298165
"Nandi Durga Road,Bangalore, India",12.9974474,77.6009869
"Mahadevapura,Bangalore, India",12.9965445,77.6927176
"JP Nagar,Mysore, India",12.2655944,76.6465404
"Derebail,Mangalore, India",,
"Rajaji Nagar,Bangalore, India",13.0041618,77.5491817
"Brookefield,Bangalore, India",12.9652094,77.717936
"Ilavala Hobli,Mysore, India",,
"Nanjungud Road,Mysore, India",,
"Kandhanchavadi,Chennai, India",,
"Malleshwaram,Bangalore, India",13.0027353,77.5703253
"Madh,Mumbai, India",19.1375285,72.7918857
"Malad,Mumbai, India",19.1867193,72.8485884
"Carmona,Goa, India",15.1976008,73.9510757
"Prabhadevi,Mumbai, India",19.0074717,72.8358965
"Deonar,Mumbai, India",19.0475502,72.9051895
"Kulai,Mangalore, India",12.9635649,74.806221
"Goregaon West,Mumbai, India",19.1633281,72.8411995
"Sector-37,Chandigarh, India",30.7385345,76.7503381
"Surathkal,Mangalore, India",12.9798673,74.8246658
"Colaba,Mumbai, India",18.915091,72.8259691
"Haji Ali,Mumbai, India",18.9776392,72.8090351
"Altamount Road,Mumbai, India",18.9662078,72.8090548
"Tardeo,Mumbai, India",18.9722351,72.8203423
"CBD Belapur,Navi Mumbai, India",19.0190244,73.0390629
"Kulshekar,Mangalore, India",,
"Kaikamba,Mangalore, India",12.9497858,74.9343991
"Bajpe,Mangalore, India",12.9546178,74.8847182
"SL Mathias Road,Mangalore, India",,
"Mavoor,Kozhikode, India",11.2607979,75.9529912
"Olarikkara,Thrissur, India",10.5195788,76.1741304
"Kadri,Mangalore, India",12.8897288,74.8501424
"Nanthoor,Mangalore, India",12.8847697,74.8607701
"Kudroli,Mangalore, India",12.8765518,74.8302397
"Chilimbi,Mangalore, India",12.8935984,74.837515
"Bendoorwell,Mangalore, India",,
"Urwa,Mangalore, India",12.889223,74.8325295
"Yemmekere,Mangalore, India",12.8499951,74.8411897
"Mallikatte,Mangalore, India",12.8783034,74.8553269
"Bendoor,Mangalore, India",12.8728457,74.8561416
"Yeyyadi,Mangalore, India",12.8979468,74.861564
"Pvs Jn,Mangalore, India",,
"Ashok Nagar,Mangalore, India",,
"Bolar,Mangalore, India",12.8468042,74.8430182
"Balmatta,Mangalore, India",12.8791877,74.8584005
"Pandeshwar,Mangalore, India",12.85684,74.8379984
"Gandhi Nagar,Mangalore, India",13.0575915,77.5894655
"Kankanady,Mangalore, India",12.8646481,74.8600033
"Shakti Nagar,Mangalore, India",,
"Jyoti Circle,Mangalore, India",,
"Bondel,Mangalore, India",12.9243306,74.8694491
"Pumpwell,Mangalore, India",12.8696153,74.86606
"Hampankatta,Mangalore, India",12.8691203,74.843432
"Mangaladevi,Mangalore, India",12.8492308,74.8452609
"Nantoor,Mangalore, India",12.8838547,74.8637169
"Kottara Chowk,Mangalore, India",,
"Alape,Mangalore, India",12.8713284,74.8867979
"KSR Road,Mangalore, India",,
"Shiva bagh,Mangalore, India",,
"Kuttar Junction,Mangalore, India",,
"Arya Samaj Road,Mangalore, India",,
"Attavar,Mangalore, India",12.860548,74.8480626
"Sanjayanagara,Bangalore, India",13.0318634,77.5774383
"Boloor,Mangalore, India",12.8866121,74.8247716
"Mahadev Nagar Tekra,Ahmedabad, India",,
"Bardhanpalli,Kolkata, India",,
"Mary Hill,Mangalore, India",,
"Kottara,Mangalore, India",12.9111902,74.8357222
"Lalitadripura,Mysore, India",12.2919164,76.6951322
"Belvata,Mysore, India",,
"Block 7th Jayanagar,Bangalore, India",12.928559,77.5823467
"Lakshmipuram,Mysore, India",12.2959875,76.6455658
"Basthipura,Mysore, India",,
"Yelwal,Mysore, India",,
"Belavadi,Mysore, India",12.3383044,76.5725135
"K Hemmanahalli,Mysore, India",,
"Vijayanagar 4th Stage,Mysore, India",,
"T N Pur,Mysore, India",,
"Sardar Vallabh Bhai Patel Nagar,Mysore, India",,
"Yandahalli,Mysore, India",,
"sapthamathruka layout,Mysore, India",,
"Rajendranagar,Mysore, India",12.3323998,76.6672293
"Hudco Layout,Mysore, India",12.342979,76.6506444
"Hebbal,Mysore, India",12.3579894,76.6105084
"JSS Layout,Mysore, India",12.2912923,76.6947245
"Vijayanagar Extn.,Mysore, India",,
"Srirampura,Mysore, India",12.2637268,76.622815
"Shivapura,Bangalore, India",13.0148187,77.5047613
"Konanakunte,Bangalore, India",12.8792861,77.5697529
"Kothnoor Dinne,Bangalore, India",,
"Sriramapura,Mysore, India",12.2701965,76.6242663
"KRS Road,Mysore, India",12.3150185,76.6431746
"Varuna,Mysore, India",12.3796251,76.6342297
"Sindhuvalli,Mysore, India",12.2872621,76.6246846
"Thaluru,Mysore, India",,
"Doddakaturu,Mysore, India",,
"Yelawala,Mysore, India",,
"HD Kote Road,Mysore, India",,
"Jayapura Hobli,Mysore, India",12.2507698,76.5845197
"Satagalli,Mysore, India",12.32895,76.6878529
"Narasimha Raja Mohalla,Mysore, India",,
"Nanjangud Highway,Mysore, India",,
"Taloor,Mysore, India",,
"Chamundipuram,Mysore, India",12.2885812,76.6481518
"Hanchya,Mysore, India",,
"V V Mohalla,Mysore, India",12.3076527,76.6670177
"Gokulam,Mysore, India",12.3260989,76.628297
"Jaya Laxmi Puram,Mysore, India",,
"Vijayapura Town,Bangalore, India",13.2964056,77.8028933
"Neeladri Nagar,Bangalore, India",12.8415946,77.6479125
"Madaragalli,Mysore, India",,
"Gejjagalli,Mysore, India",,
"Srinagara Layout,Mysore, India",,
"Bugathagalli,Mysore, India",,
"Yadavgiri,Mysore, India",,
"Dattagalli,Mysore, India",12.2831709,76.6061144
"Visveshwara Nagar,Mysore, India",,
"Mahadevapura Main Road,Mysore, India",,
"Vidyarayanapuram,Mysore, India",,
"Hootagalli,Mysore, India",,
"KC Layout,Mysore, India",12.2975827,76.6851812
"Chikkanahalli,Bangalore, India",12.9058433,77.6202731
"Puttur,Mangalore, India",,
"Sathgalli,Mysore, India",,
"Ramanahalli,Mysore, India",,
"Mandi Mohalla,Mysore, India",12.3168718,76.6539059
"Nazarbad,Mysore, India",12.3093335,76.6657534
"Siddhartha Layout,Mysore, India",12.3090345,76.6844135
"Belagola,Mysore, India",,
"Dadadahalli,Mysore, India",,
"Pallikaranai,Chennai, India",12.9304748,80.2077692
"Lal Bagh Main Road,Bangalore, India",,
"Bavdhan,Pune, India",18.5209541,73.7780873
"Chikkajala,Bangalore, India",13.1679234,77.6372834
"Guindy,Chennai, India",13.0086685,80.2126063
"Bilekahalli,Bangalore, India",12.9046331,77.6070945
"Trichy Road,Coimbatore, India",11.0055605,77.0676212
"Marine Drive,Kochi, India",9.9784782,76.2757727
"Phase 7 JP Nagar,Bangalore, India",12.9096941,77.5866067
"Amrutahalli,Bangalore, India",13.0662319,77.6007646
"Valasaravakkam,Chennai, India",13.0410164,80.1721682
"Netoor,Kochi, India",,
"Stadium Link Road,Kochi, India",9.9928554,76.3015338
"Maradu,Ernakulam, India",9.9397588,76.3286304
"Edappally,Kochi, India",10.025487,76.3079848
"Aluva,Kochi, India",10.1100952,76.3495159
"Kadavanthra,Kochi, India",9.9641619,76.2985358
"Panampily Nagar,Kochi, India",,
"Maradu,Kochi, India",9.9451454,76.3342475
"Mattanchery,Kochi, India",9.9578355,76.2607201
"Menaka-MARINE DRIVE,Kochi, India",,
"Kalamasery,Kochi, India",,
"Kochangadi,Kochi, India",9.9510767,76.2599855
"Shenoys,Ernakulam, India",9.977945,76.2839425
"Panayappilly,Kochi, India",9.9496976,76.2576753
"Ravipuram,Kochi, India",9.961558,76.2934625
"Padivattom,Ernakulam, India",10.0093308,76.3157946
"Panampilly Nagar,Ernakulam, India",9.9555438,76.2965138
"Irumpanam,Ernakulam, India",9.9686302,76.355781
"Kathrikadavu,Kochi, India",,
"Pallimukku,Kochi, India",8.8764222,76.6238298
"Ettumanoor,Kottayam, India",9.6751487,76.5460114
"Kanjikuzhy,Kottayam, India",9.5854516,76.5454541
"Thrippunithura,Kochi, India",9.9477932,76.3459791
"Sector 28,Noida, India",28.571608,77.3318283
"PT Usha Road,Ernakulam, India",9.9735566,76.2833124
"Cheranalloor,Kochi, India",,
"Nellikunnu,Thrissur, India",10.7180709,76.180702
"Palarivattom,Kochi, India",10.0029489,76.3059882
"Puthiyangadi,Kozhikode, India",11.3036442,75.7616721
"Thiruvaniyoor,Ernakulam, India",9.93392,76.4248118
"Eroor,Kochi, India",9.9675898,76.3311011
"UK Sankunni Road,Kozhikode, India",,
"Avenue Road,Thrissur, India",10.5135577,76.2315219
"Chidambarampady,Kottayam, India",,
"Eloor,Ernakulam, India",10.0669964,76.2989276
"Nirman Nagar,Jaipur, India",26.8834571,75.7476254
"Mannanthala,Trivandrum, India",8.5606753,76.9433771
"Thiruvalla,Pathanamthitta, India",9.3867448,76.5762652
"Kaloor,Kochi, India",10.1467961,76.2517878
"Elamakkara,Kochi, India",10.0026919,76.3058331
"Sreekaryam,Trivandrum, India",8.5489489,76.9171867
"Gandhi Nagar,Kottayam, India",9.6278999,76.5407545
"Chevarambalam,Kozhikode, India",11.282231,75.8106776
"Pala,Kottayam, India",9.7130742,76.6831302
"Puthuppally,Kottayam, India",9.5593525,76.5715284
"Pottammal,Kozhikode, India",11.2601885,75.808315
"Paravattani,Thrissur, India",10.5257508,76.2368509
"Anchery,Thrissur, India",10.5028707,76.2434682
"Vellayil,Kozhikode, India",11.2649807,75.7740572
"Peringavu,Thrissur, India",10.549097,76.219974
"Edappally,Ernakulam, India",10.0251551,76.3113552
"Kazhakkottam,Trivandrum, India",8.5979439,76.9001119
"Cherthala,Alappuzha, India",9.6912036,76.3257168
"Kottooli,Kozhikode, India",11.265796,75.8048582
"Kottakkakam,Kollam, India",8.889782,76.5787623
"Thottumugham,Keezhmad, India",,
"Vaduthala,Ernakulam, India",10.0187115,76.2752271
"Thevara,Ernakulam, India",9.9361285,76.2982904
"Valiyannur,Kannur, India",11.8994566,75.4201637
"Kuriachira,Thrissur, India",10.5027392,76.2228498
"Kottankulangara,Alappuzha, India",9.5248108,76.3498544
"Kalathipady,Kottayam, India",9.5890803,76.5527827
"Eranhipaalam,Kozhikode, India",,
"Vytilla,Ernakulam, India",9.9718227,76.3178983
"Vyttila,Ernakulam, India",9.9673396,76.3175261
"Mansarovar,Jaipur, India",26.8756076,75.7509072
"Keerthi Nagar,Ernakulam, India",10.0127661,76.293177
"Nagambadam,Kottayam, India",,
"Pillakad,Thrissur, India",10.6308945,76.0314167
"Bavana Nagar,Kollam, India",,
"Tazhekkod,Kozhikode, India",11.2564259,75.7827902
"Koombara,Kozhikode, India",11.3250556,76.0753548
"Kollam Theni Hwy,Kottayam, India",9.5380434,76.8951612
"Erayil kadavu,Kottayam, India",9.5873327,76.5289163
"Manganam,Kottayam, India",9.58334,76.54999
"Puthanangady,Kottayam, India",9.5909073,76.5134828
"Kannothchal,Kannur, India",,
"Devalokam,Kottayam, India",9.5776878,76.5432188
"Bilathikkulam,Kozhikode, India",,
"Mananchira,Kozhikode, India",11.2545265,75.7800114
"Thiruthiyad,Kozhikode, India",11.2619216,75.7915398
"Vaishali Nagar,Jaipur, India",26.9095703,75.7391732
"Dadi Ka Phatak,Jaipur, India",26.9619131,75.7572143
"Shyam Nagar,Jaipur, India",26.8964768,75.7706279
"Elamkulam,Ernakulam, India",9.9689398,76.3003184
"Vattaiyurkavu,Trivandrum, India",,
"Koorkenchery,Thrissur, India",10.5024998,76.2129619
"Payyambalam,Kannur, India",11.8715129,75.3550542
"Perumanoor,Kochi, India",9.9482372,76.2934291
"Ayyappankavu,Kochi, India",,
"Nadakkave,Kozhikode, India",11.2710537,75.7763309
"Kottayam,Kottayam, India",9.591564,76.5221599
"Pallippuram,Trivandrum, India",8.5928975,76.8593729
"Kulathoor,Trivandrum, India",8.5372683,76.8801999
"Thirunakara,Kottayam, India",9.5907827,76.5201407
"S H Mount,Kottayam, India",9.6121112,76.5279065
"Thukalassery,Thiruvalla, India",9.370971,76.5789803
"Vypin,Kochi, India",10.078103,76.2059731
"Pottore,Thrissur, India",10.5822544,76.1999137
"Pangappara,Trivandrum, India",8.5563727,76.9043933
"Dighi,Pune, India",18.6227121,73.8738776
"Mahatma Gandhi Road,Kochi, India",9.4645574,76.3401835
"Akkulams,Trivandrum, India",,
"Kodimatha,Kottayam, India",9.5793963,76.5196499
"Thiruvankulam,Kochi, India",9.9459926,76.3683807
"Guruvayur,Thrissur, India",10.5972429,76.0459148
"Nedumbassery,Kochi, India",10.1544859,76.3924889
"Petta,Trivandrum, India",8.4887471,76.937592
"Kowdiar,Trivandrum, India",8.5222606,76.9605163
"Nalanchira,Trivandrum, India",8.5452879,76.9451042
"Pattom,Trivandrum, India",8.5186064,76.9423829
"Vazhakkala,Kochi, India",,
"Nandavanam,Trivandrum, India",8.5070068,76.9555929
"Vettamukku,Trivandrum, India",8.5085117,76.987555
"Sastamangalam,Trivandrum, India",,
"Kuravankonam,Trivandrum, India",8.5245103,76.9540027
"Perurkada,Trivandrum, India",,
"NH Bypass,Trivandrum, India",8.791702,76.7179824
"Alwaye,Kochi, India",10.0802307,76.3389244
"Nanthancodu,Trivandrum, India",8.4684732,76.9858961
"Kesavadasapuram,Trivandrum, India",8.5297091,76.9384033
"Vennalla,Ernakulam, India",,
"Palayam,Trivandrum, India",8.5030538,76.9500997
"Marappalam,Trivandrum, India",8.5244812,76.9475775
"Peyad,Trivandrum, India",8.5142482,77.0196917
"Ambalammukku,Trivandrum, India",,
